[{
		"id": 144,
		"name": "Afganistán",
		"englishName": "Afghanistan",
		"flag": "https://firebasestorage.googleapis.com/v0/b/banderasapipaises.appspot.com/o/Banderas%2Faf.svg?alt=media&token=43145643-83b2-419b-ae57-0cf8b09744e1",
		"capital": "Kabul",
		"latitude": 33.93911,
		"longitude": 67.709953,
		"countryCodes": {
			"tld": "sf",
			"iso3": "AFG",
			"iso2": "AF",
			"fips": "AF",
			"isoN": 4
		},
		"callCode": [93
		]
	},{
		"id": 114,
		"name": "Albania",
		"englishName": "Albania",
		"flag": "https://firebasestorage.googleapis.com/v0/b/banderasapipaises.appspot.com/o/Banderas%2Fal.svg?alt=media&token=a041fd13-10f5-4515-ada4-d7d5d3ae9aee",
		"capital": "Triana",
		"latitude": 41.153332,
		"longitude": 20.168331,
		"countryCodes": {
			"tld": "al",
			"iso3": "ALB",
			"iso2": "AL",
			"fips": "AL",
			"isoN": 8
		},
		"callCode": [358
		]
	},{
		"id": 18,
		"name": "Alemania",
		"englishName": "Germany",
		"flag": "https://firebasestorage.googleapis.com/v0/b/banderasapipaises.appspot.com/o/Banderas%2Fde.svg?alt=media&token=941656ff-abc2-4931-bc5a-2e6e6cb28828",
		"capital": "Berlín",
		"latitude": 51.165691,
		"longitude": 10.451526,
		"countryCodes": {
			"tld": "de",
			"iso3": "DEU",
			"iso2": "DE",
			"fips": "GM",
			"isoN": 276
		},
		"callCode": [49
		]
	},{
		"id": 98,
		"name": "Argelia",
		"englishName": "Algeria",
		"flag": "https://firebasestorage.googleapis.com/v0/b/banderasapipaises.appspot.com/o/Banderas%2Fdz.svg?alt=media&token=3db31506-a6d6-42b8-8855-4d1f734fcce6",
		"capital": "Argel",
		"latitude": 20.033886,
		"longitude": 1.659626,
		"countryCodes": {
			"tld": "dz",
			"iso3": "DZA",
			"iso2": "DZ",
			"fips": "AG",
			"isoN": 12
		},
		"callCode": [213
		]
	},{
		"id": 145,
		"name": "Andorra",
		"englishName": "Andorra",
		"flag": "https://firebasestorage.googleapis.com/v0/b/banderasapipaises.appspot.com/o/Banderas%2Fad.svg?alt=media&token=b7b9cf5e-f413-446c-be10-c42bb79d50af",
		"capital": "Andorra la vieja",
		"latitude": 42.546245,
		"longitude": 1.601554,
		"countryCodes": {
			"tld": "ad",
			"iso3": "AND",
			"iso2": "AD",
			"fips": "AN",
			"isoN": 20
		},
		"callCode": [376
		]
	},{
		"id": 119,
		"name": "Angola",
		"englishName": "Angola",
		"flag": "https://firebasestorage.googleapis.com/v0/b/banderasapipaises.appspot.com/o/Banderas%2Fao.svg?alt=media&token=d40f831a-7b0f-4b3f-9de7-4361eb5d51e6",
		"capital": "Andorra la vieja",
		"latitude": -11.202692,
		"longitude": 17.873887,
		"countryCodes": {
			"tld": "ao",
			"iso3": "AGO",
			"iso2": "AO",
			"fips": "AO",
			"isoN": 24
		},
		"callCode": [244
		]
	},{
		"id": 4,
		"name": "Anguila",
		"englishName": "Anguilla",
		"flag": "https://firebasestorage.googleapis.com/v0/b/banderasapipaises.appspot.com/o/Banderas%2Fai.svg?alt=media&token=fc0927cc-e21e-447a-8219-231917b4cc6e",
		"capital": "El Valle",
		"latitude": 18.220554,
		"longitude": -63.068615,
		"countryCodes": {
			"tld": "ai",
			"iso3": "AIA",
			"iso2": "AI",
			"fips": "AV",
			"isoN": 660
		},
		"callCode": [1264
		]
	},{
		"id": 147,
		"name": "Antigua y Barbuda",
		"englishName": "Antigua and Barbuda",
		"flag": "https://firebasestorage.googleapis.com/v0/b/banderasapipaises.appspot.com/o/Banderas%2Fag.svg?alt=media&token=1fb1686e-9bb6-499f-9a8a-f391ddb53b79",
		"capital": "Saint John's",
		"latitude": 17.060816,
		"longitude": -61.796428,
		"countryCodes": {
			"tld": "ag",
			"iso3": "ATG",
			"iso2": "AG",
			"fips": "AC",
			"isoN": 28
		},
		"callCode": [1268
		]
	},{
		"id": 207,
		"name": "Antillas Holandesas",
		"englishName": "Netherlands Antilles",
		"flag": "https://firebasestorage.googleapis.com/v0/b/banderasapipaises.appspot.com/o/Banderas%2FFlag_of_the_Netherlands_Antilles_(1986%E2%80%932010).svg?alt=media&token=2389c25f-06d4-49fb-b780-cc100a37204c",
		"capital": "Willemstead",
		"latitude": 12.226079,
		"longitude": -69.060087,
		"countryCodes": {
			"tld": "an",
			"iso3": "ANT",
			"iso2": "AN",
			"fips": "NT",
			"isoN": 530
		}
	},{
		"id": 91,
		"name": "Arabia Saudita",
		"englishName": "Saudi Arabia",
		"flag": "https://firebasestorage.googleapis.com/v0/b/banderasapipaises.appspot.com/o/Banderas%2Fsa.svg?alt=media&token=6ab51eb1-adea-41ca-a549-7e2bf13a63d7",
		"capital": "Riad",
		"latitude": 23.885942,
		"longitude": 45.079162,
		"countryCodes": {
			"tld": "sa",
			"iso3": "SAU",
			"iso2": "SA",
			"fips": "SA",
			"isoN": 682
		},
		"callCode": [966
		]
	},{
		"id": 5,
		"name": "Argentina",
		"englishName": "Argentina",
		"flag": "https://firebasestorage.googleapis.com/v0/b/banderasapipaises.appspot.com/o/Banderas%2Far.svg?alt=media&token=0bd83432-ca4a-4e75-8984-f14dfe80b14e",
		"capital": "Buenos Aires",
		"latitude": -38.416097,
		"longitude": -63.616672,
		"countryCodes": {
			"tld": "ar",
			"iso3": "ARG",
			"iso2": "AR",
			"fips": "AR",
			"isoN": 32
		},
		"callCode": [54
		]
	},{
		"id": 6,
		"name": "Armenia",
		"englishName": "Armenia",
		"flag": "https://firebasestorage.googleapis.com/v0/b/banderasapipaises.appspot.com/o/Banderas%2Fam.svg?alt=media&token=52ae243c-d255-429c-b2ed-c7c2dd45303a",
		"capital": "Ereván",
		"latitude": 40.069099,
		"longitude": 45.038189,
		"countryCodes": {
			"tld": "am",
			"iso3": "ARM",
			"iso2": "AM",
			"fips": "AM",
			"isoN": 51
		},
		"callCode": [374
		]
	},{
		"id": 142,
		"name": "Aruba",
		"englishName": "Aruba",
		"flag": "https://firebasestorage.googleapis.com/v0/b/banderasapipaises.appspot.com/o/Banderas%2Faw.svg?alt=media&token=2c4076ca-58ce-4a3d-be37-64dafaad22d6",
		"capital": "Oranjestad",
		"latitude": 12.52111,
		"longitude": -69.968338,
		"countryCodes": {
			"tld": "aw",
			"iso3": "ABW",
			"iso2": "AW",
			"fips": "AA",
			"isoN": 533
		},
		"callCode": [297
		]
	},{
		"id": 1,
		"name": "Australia",
		"englishName": "Australia",
		"flag": "https://firebasestorage.googleapis.com/v0/b/banderasapipaises.appspot.com/o/Banderas%2Fau.svg?alt=media&token=9eeb7873-e1da-471c-acb5-4facffae04f6",
		"capital": "Canberra",
		"latitude": -25.274398,
		"longitude": 133.775136,
		"countryCodes": {
			"tld": "au",
			"iso3": "AUS",
			"iso2": "AU",
			"fips": "AS",
			"isoN": 36
		},
		"callCode": [61
		]
	},{
		"id": 2,
		"name": "Austria",
		"englishName": "Austria",
		"flag": "https://firebasestorage.googleapis.com/v0/b/banderasapipaises.appspot.com/o/Banderas%2Fat.svg?alt=media&token=63a28ce7-a1d1-4a47-ba7f-94ec80e9e6b4",
		"capital": "Viena",
		"latitude": 47.516231,
		"longitude": 14.550072,
		"countryCodes": {
			"tld": "at",
			"iso3": "AUT",
			"iso2": "AT",
			"fips": "AU",
			"isoN": 40
		},
		"callCode": [43
		]
	},{
		"id": 3,
		"name": "Azerbaiyán",
		"englishName": "Azerbaijan",
		"flag": "https://firebasestorage.googleapis.com/v0/b/banderasapipaises.appspot.com/o/Banderas%2Faz.svg?alt=media&token=4e2d0ae8-38ad-4f43-bc7d-1123f13cb9de",
		"capital": "Bakú",
		"latitude": 40.143105,
		"longitude": 47.576927,
		"countryCodes": {
			"tld": "az",
			"iso3": "AZE",
			"iso2": "AZ",
			"fips": "AJ",
			"isoN": 31
		},
		"callCode": [994
		]
	},{
		"id": 80,
		"name": "Bahamas",
		"englishName": "Bahamas",
		"flag": "https://firebasestorage.googleapis.com/v0/b/banderasapipaises.appspot.com/o/Banderas%2Fbs.svg?alt=media&token=7bd6b03f-18c8-41f6-b5e8-d20c86e21014",
		"capital": "Nasáu",
		"latitude": 25.03428,
		"longitude": -77.39628,
		"countryCodes": {
			"tld": "bs",
			"iso3": "BHS",
			"iso2": "BS",
			"fips": "BF",
			"isoN": 44
		},
		"callCode": [1242
		]
	},{
		"id": 127,
		"name": "Baréin",
		"englishName": "Bahrain",
		"flag": "https://firebasestorage.googleapis.com/v0/b/banderasapipaises.appspot.com/o/Banderas%2Fbh.svg?alt=media&token=962cc44f-44b2-4607-a2e4-5ac78d90907a",
		"capital": "Manama",
		"latitude": 25.930414,
		"longitude": 50.637772,
		"countryCodes": {
			"tld": "bh",
			"iso3": "BHR",
			"iso2": "BH",
			"fips": "BA",
			"isoN": 48
		},
		"callCode": [973
		]
	},{
		"id": 149,
		"name": "Bangladesh",
		"englishName": "Bangladesh",
		"flag": "https://firebasestorage.googleapis.com/v0/b/banderasapipaises.appspot.com/o/Banderas%2Fbd.svg?alt=media&token=4082b15c-c282-48de-af63-3131a1704a0e",
		"capital": "Daca",
		"latitude": 23.684994,
		"longitude": 90.356331,
		"countryCodes": {
			"tld": "bd",
			"iso3": "BGD",
			"iso2": "BD",
			"fips": "BG",
			"isoN": 50
		},
		"callCode": [880
		]
	},{
		"id": 128,
		"name": "Barbados",
		"englishName": "Barbados",
		"flag": "https://firebasestorage.googleapis.com/v0/b/banderasapipaises.appspot.com/o/Banderas%2Fbb.svg?alt=media&token=3720cbd8-9c4f-4f4b-a31e-1c267649cbe1",
		"capital": "Bridgetown",
		"latitude": 13.193887,
		"longitude": -59.543198,
		"countryCodes": {
			"tld": "bb",
			"iso3": "BRB",
			"iso2": "BB",
			"fips": "BB",
			"isoN": 52
		},
		"callCode": [1246
		]
	},{
		"id": 9,
		"name": "Bélgica",
		"englishName": "Belgium",
		"flag": "https://firebasestorage.googleapis.com/v0/b/banderasapipaises.appspot.com/o/Banderas%2Fbe.svg?alt=media&token=35cacf41-b622-4090-962f-59e2a1e9cbb5",
		"capital": "Bruselas",
		"latitude": 50.503887,
		"longitude": 4.469936,
		"countryCodes": {
			"tld": "be",
			"iso3": "BEL",
			"iso2": "BE",
			"fips": "BE",
			"isoN": 56
		},
		"callCode": [32
		]
	},{
		"id": 8,
		"name": "Belice",
		"englishName": "Belize",
		"flag": "https://firebasestorage.googleapis.com/v0/b/banderasapipaises.appspot.com/o/Banderas%2Fbz.svg?alt=media&token=577aa1c5-f61a-4815-85af-952e3b33d5a5",
		"capital": "Belmopán",
		"latitude": 17.189877,
		"longitude": -88.49765,
		"countryCodes": {
			"tld": "bz",
			"iso3": "BLZ",
			"iso2": "BZ",
			"fips": "BH",
			"isoN": 84
		},
		"callCode": [501
		]
	},{
		"id": 151,
		"name": "Benín",
		"englishName": "Benin",
		"flag": "https://firebasestorage.googleapis.com/v0/b/banderasapipaises.appspot.com/o/Banderas%2Fbj.svg?alt=media&token=6f476b53-bfcf-41e5-b7f1-8c123af2ac61",
		"capital": "Porto-Novo",
		"latitude": 9.30769,
		"longitude": 2.315834,
		"countryCodes": {
			"tld": "bj",
			"iso3": "BEN",
			"iso2": "BJ",
			"fips": "BN",
			"isoN": 204
		},
		"callCode": [229
		]
	},{
		"id": 10,
		"name": "Bermudas",
		"englishName": "Bermuda",
		"flag": "https://firebasestorage.googleapis.com/v0/b/banderasapipaises.appspot.com/o/Banderas%2Fbm.svg?alt=media&token=d9050854-4323-4575-a70c-59d34f8d7e2f",
		"capital": "Hamilton",
		"latitude": 32.321384,
		"longitude": -64.75737,
		"countryCodes": {
			"tld": "bm",
			"iso3": "BMU",
			"iso2": "BM",
			"fips": "BD",
			"isoN": 60
		},
		"callCode": [1441
		]
	},{
		"id": 7,
		"name": "Bielorrusia",
		"englishName": "Belarus",
		"flag": "https://firebasestorage.googleapis.com/v0/b/banderasapipaises.appspot.com/o/Banderas%2Fby.svg?alt=media&token=ab27bc34-e1c9-4051-8f16-aea714be7d00",
		"capital": "Minsk",
		"latitude": 53.709807,
		"longitude": 27.953389,
		"countryCodes": {
			"tld": "by",
			"iso3": "BLR",
			"iso2": "BY",
			"fips": "BO",
			"isoN": 112
		},
		"callCode": [375
		]
	},{
		"id": 123,
		"name": "Bolivia",
		"englishName": "Bolivia",
		"flag": "https://firebasestorage.googleapis.com/v0/b/banderasapipaises.appspot.com/o/Banderas%2Fbo.svg?alt=media&token=d556aa25-18b3-427c-9372-8cc61246f2c7",
		"capital": "Sucre",
		"latitude": -16.290154,
		"longitude": -63.588653,
		"countryCodes": {
			"tld": "bo",
			"iso3": "BOL",
			"iso2": "BO",
			"fips": "BL",
			"isoN": 68
		},
		"callCode": [591
		]
	},{
		"id": 79,
		"name": "Bosnia y Herzegovina",
		"englishName": "Bosnia and Herzegovina",
		"flag": "https://firebasestorage.googleapis.com/v0/b/banderasapipaises.appspot.com/o/Banderas%2Fba.svg?alt=media&token=1a04790f-740b-46da-b9fc-663fee69b4f4",
		"capital": "Sarajevo",
		"latitude": 43.915886,
		"longitude": 17.679076,
		"countryCodes": {
			"tld": "ba",
			"iso3": "BIH",
			"iso2": "BA",
			"fips": "BK",
			"isoN": 70
		},
		"callCode": [387
		]
	},{
		"id": 100,
		"name": "Botswana",
		"englishName": "Botswana",
		"flag": "https://firebasestorage.googleapis.com/v0/b/banderasapipaises.appspot.com/o/Banderas%2Fbw.svg?alt=media&token=7f3c8d11-58db-4e14-91b9-6fd0a570ab58",
		"capital": "Gaborone",
		"latitude": -22.328474,
		"longitude": 24.684866,
		"countryCodes": {
			"tld": "bw",
			"iso3": "BWA",
			"iso2": "BW",
			"fips": "BC",
			"isoN": 72
		},
		"callCode": [267
		]
	},{
		"id": 12,
		"name": "Brasil",
		"englishName": "Brazil",
		"flag": "https://firebasestorage.googleapis.com/v0/b/banderasapipaises.appspot.com/o/Banderas%2Fbr.svg?alt=media&token=ea16c2fa-9cfa-445d-a8f7-f2250c53051c",
		"capital": "Brasilia",
		"latitude": -14.235004,
		"longitude": -51.92528,
		"countryCodes": {
			"tld": "br",
			"iso3": "BRA",
			"iso2": "BR",
			"fips": "BR",
			"isoN": 76
		},
		"callCode": [55
		]
	},{
		"id": 155,
		"name": "Brunéi",
		"englishName": "Brunei",
		"flag": "https://firebasestorage.googleapis.com/v0/b/banderasapipaises.appspot.com/o/Banderas%2Fbn.svg?alt=media&token=eb67a42d-c240-47af-affe-1306477a481d",
		"capital": "Bandar Seri Begawan",
		"latitude": 4.535277,
		"longitude": 114.727669,
		"countryCodes": {
			"tld": "bn",
			"iso3": "BRN",
			"iso2": "BN",
			"fips": "BX",
			"isoN": 96
		},
		"callCode": [55
		]
	},{
		"id": 11,
		"name": "Bulgaria",
		"englishName": "Bulgaria",
		"flag": "https://firebasestorage.googleapis.com/v0/b/banderasapipaises.appspot.com/o/Banderas%2Fbg.svg?alt=media&token=f3c7c26b-f339-48bb-bfa7-d5bc3b6ca602",
		"capital": "Sofía",
		"latitude": 42.733883,
		"longitude": 25.48583,
		"countryCodes": {
			"tld": "bg",
			"iso3": "BGR",
			"iso2": "BG",
			"fips": "BU",
			"isoN": 100
		},
		"callCode": [359
		]
	},{
		"id": 156,
		"name": "Burkina Faso",
		"englishName": "Burkina Faso",
		"flag": "https://firebasestorage.googleapis.com/v0/b/banderasapipaises.appspot.com/o/Banderas%2Fbf.svg?alt=media&token=17c7efea-a605-497c-ac56-c1a25df1c965",
		"capital": "Uagadugú",
		"latitude": 12.238333,
		"longitude": -1.561593,
		"countryCodes": {
			"tld": "bf",
			"iso3": "BFA",
			"iso2": "BF",
			"fips": "UV",
			"isoN": 854
		},
		"callCode": [226
		]
	},{
		"id": 157,
		"name": "Burundi",
		"englishName": "Burundi",
		"flag": "https://firebasestorage.googleapis.com/v0/b/banderasapipaises.appspot.com/o/Banderas%2Fbi.svg?alt=media&token=84038f52-7e72-431a-ba7c-c6c7cc417d41",
		"capital": "Guitega",
		"latitude": -3.373056,
		"longitude": 29.918886,
		"countryCodes": {
			"tld": "bi",
			"iso3": "BDI",
			"iso2": "BI",
			"fips": "BY",
			"isoN": 108
		},
		"callCode": [257
		]
	},{
		"id": 152,
		"name": "Bután",
		"englishName": "Bhutan",
		"flag": "https://firebasestorage.googleapis.com/v0/b/banderasapipaises.appspot.com/o/Banderas%2Fbt.svg?alt=media&token=2a304078-16f2-4622-aad4-0ef4aaaa962e",
		"capital": "Timbu",
		"latitude": 27.514162,
		"longitude": 90.433601,
		"countryCodes": {
			"tld": "bt",
			"iso3": "BTN",
			"iso2": "BT",
			"fips": "BT",
			"isoN": 64
		},
		"callCode": [975
		]
	},{
		"id": 159,
		"name": "Cabo Verde",
		"englishName": "Cape Verde",
		"flag": "https://firebasestorage.googleapis.com/v0/b/banderasapipaises.appspot.com/o/Banderas%2Fcv.svg?alt=media&token=a25e45d7-a4d8-4e82-b821-1e187170c3c2",
		"capital": "Praia",
		"latitude": 16.002082,
		"longitude": -24.013197,
		"countryCodes": {
			"tld": "cv",
			"iso3": "CPV",
			"iso2": "CV",
			"fips": "CV",
			"isoN": 132
		},
		"callCode": [238
		]
	},{
		"id": 158,
		"name": "Camboya",
		"englishName": "Cambodia",
		"flag": "https://firebasestorage.googleapis.com/v0/b/banderasapipaises.appspot.com/o/Banderas%2Fkh.svg?alt=media&token=af2e3497-5620-45f7-8192-b496ab090c20",
		"capital": "Phnom Penh",
		"latitude": 12.565679,
		"longitude": 104.990963,
		"countryCodes": {
			"tld": "kh",
			"iso3": "KHM",
			"iso2": "KH",
			"fips": "CB",
			"isoN": 116
		},
		"callCode": [855
		]
	},{
		"id": 31,
		"name": "Camerún",
		"englishName": "Cameroon",
		"flag": "https://firebasestorage.googleapis.com/v0/b/banderasapipaises.appspot.com/o/Banderas%2Fcm.svg?alt=media&token=9bb5629d-a4da-498c-a6ac-db1d748738ba",
		"capital": "Yaundé",
		"latitude": 7.369722,
		"longitude": 12.354722,
		"countryCodes": {
			"tld": "cm",
			"iso3": "CMR",
			"iso2": "CM",
			"fips": "CM",
			"isoN": 120
		},
		"callCode": [237
		]
	},{
		"id": 32,
		"name": "Canadá",
		"englishName": "Canada",
		"flag": "https://firebasestorage.googleapis.com/v0/b/banderasapipaises.appspot.com/o/Banderas%2Fca.svg?alt=media&token=253e9b81-c5a3-4ef3-b920-7a1fdd2645be",
		"capital": "Ottawa",
		"latitude": 56.130366,
		"longitude": -106.346771,
		"countryCodes": {
			"tld": "ca",
			"iso3": "CAN",
			"iso2": "CA",
			"fips": "CA",
			"isoN": 124
		},
		"callCode": [1
		]
	},{
		"id": 130,
		"name": "Chad",
		"englishName": "Chad",
		"flag": "https://firebasestorage.googleapis.com/v0/b/banderasapipaises.appspot.com/o/Banderas%2Ftd.svg?alt=media&token=21634b7e-bcb0-4f09-869f-f37d296dd3dc",
		"capital": "Yamena",
		"latitude": 15.454166,
		"longitude": 18.732207,
		"countryCodes": {
			"tld": "td",
			"iso3": "TCD",
			"iso2": "TD",
			"fips": "CD",
			"isoN": 148
		},
		"callCode": [235
		]
	},{
		"id": 81,
		"name": "Chile",
		"englishName": "Chile",
		"flag": "https://firebasestorage.googleapis.com/v0/b/banderasapipaises.appspot.com/o/Banderas%2Fcl.svg?alt=media&token=8261e174-a217-46fe-a1c2-13f41e52de2e",
		"capital": "Santiago de Chile",
		"latitude": -35.675147,
		"longitude": -71.542969,
		"countryCodes": {
			"tld": "cl",
			"iso3": "CHL",
			"iso2": "CL",
			"fips": "CI",
			"isoN": 152
		},
		"callCode": [56
		]
	},{
		"id": 35,
		"name": "China",
		"englishName": "China",
		"flag": "https://firebasestorage.googleapis.com/v0/b/banderasapipaises.appspot.com/o/Banderas%2Fcn.svg?alt=media&token=b3c255eb-230f-4ec0-b5dd-26c204f2f426",
		"capital": "Pekín",
		"latitude": 35.86166,
		"longitude": 104.195397,
		"countryCodes": {
			"tld": "cn",
			"iso3": "CHN",
			"iso2": "CN",
			"fips": "CH",
			"isoN": 156
		},
		"callCode": [86
		]
	},{
		"id": 33,
		"name": "Chipre",
		"englishName": "Cyprus",
		"flag": "https://firebasestorage.googleapis.com/v0/b/banderasapipaises.appspot.com/o/Banderas%2Fcz.svg?alt=media&token=e64e00f4-87dd-48db-b14f-d6f94ce49827",
		"capital": "Nicosia",
		"latitude": 35.126413,
		"longitude": 33.429859,
		"countryCodes": {
			"tld": "cy",
			"iso3": "CYP",
			"iso2": "CY",
			"fips": "CY",
			"isoN": 196
		},
		"callCode": [357
		]
	},{
		"id": 82,
		"name": "Colombia",
		"englishName": "Colombia",
		"flag": "https://firebasestorage.googleapis.com/v0/b/banderasapipaises.appspot.com/o/Banderas%2Fco.svg?alt=media&token=58727573-f301-4878-8bdc-9e40f97b81a1",
		"capital": "Bogotá",
		"latitude": 4.570868,
		"longitude": -74.297333,
		"countryCodes": {
			"tld": "co",
			"iso3": "COL",
			"iso2": "CO",
			"fips": "CO",
			"isoN": 170
		},
		"callCode": [57
		]
	},{
		"id": 164,
		"name": "Comoras",
		"englishName": "Comoros",
		"flag": "https://firebasestorage.googleapis.com/v0/b/banderasapipaises.appspot.com/o/Banderas%2Fkm.svg?alt=media&token=b47decea-ddfc-4d63-8078-2879667291ad",
		"capital": "Moroni",
		"latitude": -11.875001,
		"longitude": 43.872219,
		"countryCodes": {
			"tld": "km",
			"iso3": "COM",
			"iso2": "KM",
			"fips": "CN",
			"isoN": 174
		},
		"callCode": [269
		]
	},{
		"id": 112,
		"name": "Congo",
		"englishName": "Congo",
		"flag": "https://firebasestorage.googleapis.com/v0/b/banderasapipaises.appspot.com/o/Banderas%2Fcg.svg?alt=media&token=9508ac7d-125e-4bc6-a7d0-3e8071e995b1",
		"capital": "Brazzaville",
		"latitude": -0.228021,
		"longitude": 15.827659,
		"countryCodes": {
			"tld": "cg",
			"iso3": "COG",
			"iso2": "CG",
			"fips": "CF",
			"isoN": 178
		},
		"callCode": [242
		]
	},{
		"id": 165,
		"name": "Congo (Kinshasa)",
		"englishName": "Congo",
		"flag": "https://firebasestorage.googleapis.com/v0/b/banderasapipaises.appspot.com/o/Banderas%2Fcd.svg?alt=media&token=d484e836-f49f-4c5a-8724-38f978777bd4",
		"capital": "Kinshasa",
		"latitude": -4.038333,
		"longitude": 21.758664,
		"countryCodes": {
			"tld": "cd",
			"iso3": "COD",
			"iso2": "CD",
			"fips": "CG",
			"isoN": 180
		},
		"callCode": [243
		]
	},{
		"id": 166,
		"name": "Cook, Islas",
		"englishName": "Cook Islands",
		"flag": "https://firebasestorage.googleapis.com/v0/b/banderasapipaises.appspot.com/o/Banderas%2Fck.svg?alt=media&token=ab756328-2776-4d0f-8c4b-5ddeb72fd37c",
		"capital": "Avarua",
		"latitude": -21.236736,
		"longitude": -159.777671,
		"countryCodes": {
			"tld": "ck",
			"iso3": "COK",
			"iso2": "CK",
			"fips": "CW",
			"isoN": 184
		},
		"callCode": [682
		]
	},{
		"id": 84,
		"name": "Corea del Norte",
		"englishName": "Korea North",
		"flag": "https://firebasestorage.googleapis.com/v0/b/banderasapipaises.appspot.com/o/Banderas%2Fkp.svg?alt=media&token=d717a410-cead-479c-8d2c-1caab6800d7a",
		"capital": "Pionyang",
		"latitude": 40.339852,
		"longitude": 127.510093,
		"countryCodes": {
			"tld": "KP",
			"iso3": "PRK",
			"iso2": "KP",
			"fips": "KN",
			"isoN": 408
		},
		"callCode": [850
		]
	},{
		"id": 69,
		"name": "Corea del Sur",
		"englishName": "Korea South",
		"flag": "https://firebasestorage.googleapis.com/v0/b/banderasapipaises.appspot.com/o/Banderas%2Fkr.svg?alt=media&token=34d8dfa3-da90-47dd-865b-b883ebe2e5d8",
		"capital": "Seúl",
		"latitude": 35.907757,
		"longitude": 127.766922,
		"countryCodes": {
			"tld": "kr",
			"iso3": "KOR",
			"iso2": "KR",
			"fips": "KS",
			"isoN": 410
		},
		"callCode": [82
		]
	},{
		"id": 168,
		"name": "Costa de Marfil",
		"englishName": "Ivory Coast",
		"flag": "https://firebasestorage.googleapis.com/v0/b/banderasapipaises.appspot.com/o/Banderas%2Fci.svg?alt=media&token=73469baa-c638-4519-9fa1-5c4eec15c646",
		"capital": "Yamusukro",
		"latitude": 7.539989,
		"longitude": -5.547082,
		"countryCodes": {
			"tld": "ci",
			"iso3": "CIV",
			"iso2": "CI",
			"fips": "IV",
			"isoN": 384
		},
		"callCode": [225
		]
	},{
		"id": 36,
		"name": "Costa Rica",
		"englishName": "Costa Rica",
		"flag": "https://firebasestorage.googleapis.com/v0/b/banderasapipaises.appspot.com/o/Banderas%2Fcr.svg?alt=media&token=cc330f78-a8b4-46a2-8cbd-c4958a07c6e6",
		"capital": "San José",
		"latitude": 9.748917,
		"longitude": -83.753428,
		"countryCodes": {
			"tld": "cr",
			"iso3": "CRI",
			"iso2": "CR",
			"fips": "CS",
			"isoN": 188
		},
		"callCode": [506
		]
	},{
		"id": 71,
		"name": "Croacia",
		"englishName": "Croatia",
		"flag": "https://firebasestorage.googleapis.com/v0/b/banderasapipaises.appspot.com/o/Banderas%2Fhr.svg?alt=media&token=01612e2b-09fd-4e5a-ba06-43009ba68177",
		"capital": "Zagreb",
		"latitude": 45.1,
		"longitude": 15.2,
		"countryCodes": {
			"tld": "hr",
			"iso3": "HRV",
			"iso2": "HR",
			"fips": "HR",
			"isoN": 191
		},
		"callCode": [385
		]
	},{
		"id": 113,
		"name": "Cuba",
		"englishName": "Cuba",
		"flag": "https://firebasestorage.googleapis.com/v0/b/banderasapipaises.appspot.com/o/Banderas%2Fcu.svg?alt=media&token=ca0dfc5b-0dae-4ce2-a17c-d25385e82b7a",
		"capital": "La Habana",
		"latitude": 21.521757,
		"longitude": -77.781167,
		"countryCodes": {
			"tld": "cu",
			"iso3": "CUB",
			"iso2": "CU",
			"fips": "CU",
			"isoN": 192
		},
		"callCode": [53
		]
	},{
		"id": 22,
		"name": "Dinamarca",
		"englishName": "Denmark",
		"flag": "https://firebasestorage.googleapis.com/v0/b/banderasapipaises.appspot.com/o/Banderas%2Fdk.svg?alt=media&token=521cdf2d-0585-4910-8944-f55011af9925",
		"capital": "Copenhague",
		"latitude": 56.26392,
		"longitude": 9.501785,
		"countryCodes": {
			"tld": "dk",
			"iso3": "DNK",
			"iso2": "DK",
			"fips": "DA",
			"isoN": 208
		},
		"callCode": [45
		]
	},{
		"id": 169,
		"name": "Djibouti, Yibuti",
		"englishName": "Djibouti",
		"flag": "https://firebasestorage.googleapis.com/v0/b/banderasapipaises.appspot.com/o/Banderas%2Fdj.svg?alt=media&token=d674bff5-93c8-4a4a-965d-ef69af01e2fc",
		"capital": "Djibouti",
		"latitude": 11.825138,
		"longitude": 42.590275,
		"countryCodes": {
			"tld": "dj",
			"iso3": "DJI",
			"iso2": "DJ",
			"fips": "DJ",
			"isoN": 208
		},
		"callCode": [253
		]
	},{
		"id": 103,
		"name": "Ecuador",
		"englishName": "Ecuador",
		"flag": "https://firebasestorage.googleapis.com/v0/b/banderasapipaises.appspot.com/o/Banderas%2Fec.svg?alt=media&token=f6fb2bf1-d1f8-41b1-9d4c-c7f41a74bf2a",
		"capital": "Quito",
		"latitude": -1.831239,
		"longitude": -78.183406,
		"countryCodes": {
			"tld": "ec",
			"iso3": "ECU",
			"iso2": "EC",
			"fips": "EC",
			"isoN": 218
		},
		"callCode": [593
		]
	},{
		"id": 23,
		"name": "Egipto",
		"englishName": "Egypt",
		"flag": "https://firebasestorage.googleapis.com/v0/b/banderasapipaises.appspot.com/o/Banderas%2Feg.svg?alt=media&token=b62d5804-4473-40eb-a107-486ee21e23fc",
		"capital": "El Cairo",
		"latitude": 26.820553,
		"longitude": 30.802498,
		"countryCodes": {
			"tld": "eg",
			"iso3": "EGY",
			"iso2": "EG",
			"fips": "EG",
			"isoN": 818
		},
		"callCode": [20
		]
	},{
		"id": 51,
		"name": "El Salvador",
		"englishName": "El Salvador",
		"flag": "https://firebasestorage.googleapis.com/v0/b/banderasapipaises.appspot.com/o/Banderas%2Fsv.svg?alt=media&token=f33a0e61-aad2-40f4-aa16-799735874735",
		"capital": "San Salvador",
		"latitude": 13.794185,
		"longitude": -88.89653,
		"countryCodes": {
			"tld": "sv",
			"iso3": "SLV",
			"iso2": "SV",
			"fips": "ES",
			"isoN": 222
		},
		"callCode": [503
		]
	},{
		"id": 93,
		"name": "Emiratos Árabes Unidos",
		"englishName": "United Arab Emirates",
		"flag": "https://firebasestorage.googleapis.com/v0/b/banderasapipaises.appspot.com/o/Banderas%2Fae.svg?alt=media&token=3f99e862-0434-4e8a-a47f-c1e8dd2679a0",
		"capital": "Abu Dabi",
		"latitude": 23.424076,
		"longitude": 53.847818,
		"countryCodes": {
			"tld": "ae",
			"iso3": "ARE",
			"iso2": "AE",
			"fips": "AE",
			"isoN": 784
		},
		"callCode": [971
		]
	},{
		"id": 173,
		"name": "Eritrea",
		"englishName": "Eritrea",
		"flag": "https://firebasestorage.googleapis.com/v0/b/banderasapipaises.appspot.com/o/Banderas%2Fer.svg?alt=media&token=99ff4526-cda5-474c-8b12-6ce3afe9c464",
		"capital": "Asmara",
		"latitude": 15.179384,
		"longitude": 39.782334,
		"countryCodes": {
			"tld": "er",
			"iso3": "ERI",
			"iso2": "ER",
			"fips": "ER",
			"isoN": 232
		},
		"callCode": [291
		]
	},{
		"id": 52,
		"name": "Eslovaquia",
		"englishName": "Slovakia",
		"flag": "https://firebasestorage.googleapis.com/v0/b/banderasapipaises.appspot.com/o/Banderas%2Fsk.svg?alt=media&token=580a62bd-eb83-41cc-b913-6c75534d9e93",
		"capital": "Bratislava",
		"latitude": 48.669026,
		"longitude": 19.699024,
		"countryCodes": {
			"tld": "sk",
			"iso3": "SVK",
			"iso2": "SK",
			"fips": "LO",
			"isoN": 703
		},
		"callCode": [421
		]
	},{
		"id": 53,
		"name": "Eslovenia",
		"englishName": "Slovenia",
		"flag": "https://firebasestorage.googleapis.com/v0/b/banderasapipaises.appspot.com/o/Banderas%2Fsi.svg?alt=media&token=4ea17d8c-7219-40b6-b60d-56af5d36b7a1",
		"capital": "Liubliana",
		"latitude": 46.151241,
		"longitude": 14.995463,
		"countryCodes": {
			"tld": "si",
			"iso3": "SVN",
			"iso2": "SI",
			"fips": "SI",
			"isoN": 705
		},
		"callCode": [386
		]
	},{
		"id": 28,
		"name": "España",
		"englishName": "Spain",
		"flag": "https://firebasestorage.googleapis.com/v0/b/banderasapipaises.appspot.com/o/Banderas%2Fes.svg?alt=media&token=3dc9bd05-64fe-4351-88a5-275bed8d4bfc",
		"capital": "Madrid",
		"latitude": 40.463667,
		"longitude": -3.74922,
		"countryCodes": {
			"tld": "es",
			"iso3": "ESP",
			"iso2": "ES",
			"fips": "SP",
			"isoN": 705
		},
		"callCode": [34
		]
	},{
		"id": 55,
		"name": "Estados Unidos",
		"englishName": "United States",
		"flag": "https://firebasestorage.googleapis.com/v0/b/banderasapipaises.appspot.com/o/Banderas%2Fus.svg?alt=media&token=dc1a7d4d-4754-4608-bf57-57f76e195480",
		"capital": "Washington D.C",
		"latitude": 37.09024,
		"longitude": -95.712891,
		"countryCodes": {
			"tld": "us",
			"iso3": "USA",
			"iso2": "US",
			"fips": "US",
			"isoN": 840
		},
		"callCode": [1
		]
	},{
		"id": 68,
		"name": "Estonia",
		"englishName": "Estonia",
		"flag": "https://firebasestorage.googleapis.com/v0/b/banderasapipaises.appspot.com/o/Banderas%2Fee.svg?alt=media&token=731e2197-caac-45e5-a6f6-441a3a9bd0d6",
		"capital": "Tallin",
		"latitude": 58.595272,
		"longitude": 25.013607,
		"countryCodes": {
			"tld": "ee",
			"iso3": "EST",
			"iso2": "EE",
			"fips": "EN",
			"isoN": 233
		},
		"callCode": [372
		]
	},{
		"id": 121,
		"name": "Etiopía",
		"englishName": "Ethiopia",
		"flag": "https://firebasestorage.googleapis.com/v0/b/banderasapipaises.appspot.com/o/Banderas%2Fet.svg?alt=media&token=ec1d1a85-815b-4c50-8e92-1dcd55ba2bce",
		"capital": "Adís Abeba",
		"latitude": 9.145,
		"longitude": 40.489673,
		"countryCodes": {
			"tld": "et",
			"iso3": "ETH",
			"iso2": "ET",
			"fips": "ET",
			"isoN": 231
		},
		"callCode": [251
		]
	},{
		"id": 175,
		"name": "Islas Feroe",
		"englishName": "Faroe Islands",
		"flag": "https://firebasestorage.googleapis.com/v0/b/banderasapipaises.appspot.com/o/Banderas%2Ffo.svg?alt=media&token=cf64c2c3-28fb-404a-8b30-e34acae78e04",
		"capital": "Tórshavn",
		"latitude": 61.892635,
		"longitude": -6.911806,
		"countryCodes": {
			"tld": "fo",
			"iso3": "FRO",
			"iso2": "FO",
			"fips": "FO",
			"isoN": 234
		}
	},{
		"id": 90,
		"name": "Filipinas",
		"englishName": "Philippines",
		"flag": "https://firebasestorage.googleapis.com/v0/b/banderasapipaises.appspot.com/o/Banderas%2Fph.svg?alt=media&token=47fd0de8-9ed9-4b21-9e5e-5dbc3c36deb8",
		"capital": "Manila",
		"latitude": 12.879721,
		"longitude": 121.774017,
		"countryCodes": {
			"tld": "ph",
			"iso3": "PHL",
			"iso2": "PH",
			"fips": "RP",
			"isoN": 608
		},
		"callCode": [63
		]
	},{
		"id": 63,
		"name": "Finlandia",
		"englishName": "Finland",
		"flag": "https://firebasestorage.googleapis.com/v0/b/banderasapipaises.appspot.com/o/Banderas%2Ffi.svg?alt=media&token=3a728e0f-ed6e-4303-bf3e-b8f929dc4c31",
		"capital": "Helsinki",
		"latitude": 61.92411,
		"longitude": 25.748151,
		"countryCodes": {
			"tld": "fi",
			"iso3": "FIN",
			"iso2": "FI",
			"fips": "FI",
			"isoN": 246
		},
		"callCode": [358
		]
	},{
		"id": 176,
		"name": "Fiyi",
		"englishName": "Fiji",
		"flag": "https://firebasestorage.googleapis.com/v0/b/banderasapipaises.appspot.com/o/Banderas%2Ffj.svg?alt=media&token=d7662543-1510-4ed5-a25a-ebc38bd64588",
		"capital": "Suva",
		"latitude": -16.578193,
		"longitude": 179.414413,
		"countryCodes": {
			"tld": "fj",
			"iso3": "FJI",
			"iso2": "FJ",
			"fips": "FJ",
			"isoN": 242
		},
		"callCode": [679
		]
	},{
		"id": 64,
		"name": "Francia",
		"englishName": "France",
		"flag": "https://firebasestorage.googleapis.com/v0/b/banderasapipaises.appspot.com/o/Banderas%2Ffr.svg?alt=media&token=13ea4043-6bc6-4b5e-af0a-1c945ed18240",
		"capital": "París",
		"latitude": 46.227638,
		"longitude": 2.213749,
		"countryCodes": {
			"tld": "fr",
			"iso3": "FRA",
			"iso2": "FR",
			"fips": "FR",
			"isoN": 250
		},
		"callCode": [33
		]
	},{
		"id": 180,
		"name": "Gabón",
		"englishName": "Gabon",
		"flag": "https://firebasestorage.googleapis.com/v0/b/banderasapipaises.appspot.com/o/Banderas%2Fga.svg?alt=media&token=cd2edb3a-ec7e-4d49-a068-8e98c85a5882",
		"capital": "Libreville",
		"latitude": -0.803689,
		"longitude": 11.609444,
		"countryCodes": {
			"tld": "ga",
			"iso3": "GAB",
			"iso2": "GA",
			"fips": "GB",
			"isoN": 266
		},
		"callCode": [241
		]
	},{
		"id": 181,
		"name": "Gambia",
		"englishName": "Gambia",
		"flag": "https://firebasestorage.googleapis.com/v0/b/banderasapipaises.appspot.com/o/Banderas%2Fgm.svg?alt=media&token=426f7294-219d-4780-bded-91d37f9a9a95",
		"capital": "Banjul",
		"latitude": 13.443182,
		"longitude": -15.310139,
		"countryCodes": {
			"tld": "gm",
			"iso3": "GMB",
			"iso2": "GM",
			"fips": "GA",
			"isoN": 270
		},
		"callCode": [220
		]
	},{
		"id": 21,
		"name": "Georgia",
		"englishName": "Georgia",
		"flag": "https://firebasestorage.googleapis.com/v0/b/banderasapipaises.appspot.com/o/Banderas%2Fge.svg?alt=media&token=e9557ea3-d3d2-4f7d-80c8-53b7ba1bb45e",
		"capital": "Tiflis",
		"latitude": 42.315407,
		"longitude": 43.356892,
		"countryCodes": {
			"tld": "ge",
			"iso3": "GEO",
			"iso2": "GE",
			"fips": "GG",
			"isoN": 268
		},
		"callCode": [995
		]
	},{
		"id": 105,
		"name": "Ghana",
		"englishName": "Ghana",
		"flag": "https://firebasestorage.googleapis.com/v0/b/banderasapipaises.appspot.com/o/Banderas%2Fgh.svg?alt=media&token=1b513919-9c8a-4a2d-8d35-3b5d1e966b33",
		"capital": "Acra",
		"latitude": 7.946527,
		"longitude": -1.023194,
		"countryCodes": {
			"tld": "gh",
			"iso3": "GHA",
			"iso2": "GH",
			"fips": "GH",
			"isoN": 288
		},
		"callCode": [233
		]
	},{
		"id": 143,
		"name": "Gibraltar",
		"englishName": "Gibraltar",
		"flag": "https://firebasestorage.googleapis.com/v0/b/banderasapipaises.appspot.com/o/Banderas%2Fgi.svg?alt=media&token=e185052d-5eff-4635-a3fd-39c7e65ec366",
		"capital": "Gibraltar",
		"latitude": 36.137741,
		"longitude": -5.345374,
		"countryCodes": {
			"tld": "gi",
			"iso3": "GIB",
			"iso2": "GI",
			"fips": "GI",
			"isoN": 292
		},
		"callCode": [350
		]
	},{
		"id": 184,
		"name": "Granada",
		"englishName": "Grenada",
		"flag": "https://firebasestorage.googleapis.com/v0/b/banderasapipaises.appspot.com/o/Banderas%2Fgd.svg?alt=media&token=bde4bbd1-d178-4398-b6fa-0d150a0be910",
		"capital": "Saint George's",
		"latitude": 12.262776,
		"longitude": -61.604171,
		"countryCodes": {
			"tld": "gd",
			"iso3": "GRD",
			"iso2": "GD",
			"fips": "GJ",
			"isoN": 308
		}
	},{
		"id": 20,
		"name": "Grecia",
		"englishName": "Greece",
		"flag": "https://firebasestorage.googleapis.com/v0/b/banderasapipaises.appspot.com/o/Banderas%2Fgr.svg?alt=media&token=638c72c5-ae14-4fd5-a0a0-931c2922251a",
		"capital": "Atenas",
		"latitude": 39.074208,
		"longitude": 21.824312,
		"countryCodes": {
			"tld": "gr",
			"iso3": "GRC",
			"iso2": "GR",
			"fips": "GR",
			"isoN": 300
		},
		"callCode": [30
		]
	},{
		"id": 94,
		"name": "Groenlandia",
		"englishName": "Greenland",
		"flag": "https://firebasestorage.googleapis.com/v0/b/banderasapipaises.appspot.com/o/Banderas%2Fgl.svg?alt=media&token=d77f4ef6-a9b1-402b-a1d7-c5934024ee13",
		"capital": "Nuuk",
		"latitude": 71.706936,
		"longitude": -42.604303,
		"countryCodes": {
			"tld": "gl",
			"iso3": "GRL",
			"iso2": "GL",
			"fips": "GL",
			"isoN": 304
		},
		"callCode": [299
		]
	},{
		"id": 17,
		"name": "Guadalupe",
		"englishName": "Guadeloupe",
		"flag": "https://firebasestorage.googleapis.com/v0/b/banderasapipaises.appspot.com/o/Banderas%2Fgp.svg?alt=media&token=064392eb-8e99-480b-9f90-d7dfb7d50f71",
		"capital": "Basse-Terre",
		"latitude": 16.995971,
		"longitude": -62.067641,
		"countryCodes": {
			"tld": "gp",
			"iso3": "GLP",
			"iso2": "GP",
			"fips": "GP",
			"isoN": 312
		},
		"callCode": [590
		]
	},{
		"id": 185,
		"name": "Guatemala",
		"englishName": "Guatemala",
		"flag": "https://firebasestorage.googleapis.com/v0/b/banderasapipaises.appspot.com/o/Banderas%2Fgt.svg?alt=media&token=f4b4d26e-03b6-4ee9-a6ba-452c57fe3e29",
		"capital": "Ciudad de Guatemala",
		"latitude": 15.783471,
		"longitude": -90.230759,
		"countryCodes": {
			"tld": "gt",
			"iso3": "GTM",
			"iso2": "GT",
			"fips": "GT",
			"isoN": 320
		},
		"callCode": [502
		]
	},{
		"id": 186,
		"name": "Guernsey",
		"englishName": "Guernsey",
		"flag": "https://firebasestorage.googleapis.com/v0/b/banderasapipaises.appspot.com/o/Banderas%2Fgg.svg?alt=media&token=77466a88-c4aa-4755-83b2-f50b1a2b2397",
		"capital": "Saint Peter Port",
		"latitude": 49.465691,
		"longitude": -2.585278,
		"countryCodes": {
			"tld": "gg",
			"iso3": "GGY",
			"iso2": "GG",
			"fips": "GK",
			"isoN": 831
		},
		"callCode": [44
		]
	},{
		"id": 187,
		"name": "Guinea",
		"englishName": "Guinea",
		"flag": "https://firebasestorage.googleapis.com/v0/b/banderasapipaises.appspot.com/o/Banderas%2Fgn.svg?alt=media&token=9829caf5-e254-48c3-b725-2b633b669146",
		"capital": "Conakry",
		"latitude": 9.945587,
		"longitude": -9.696645,
		"countryCodes": {
			"tld": "gn",
			"iso3": "GIN",
			"iso2": "GN",
			"fips": "GV",
			"isoN": 324
		},
		"callCode": [224
		]
	},{
		"id": 172,
		"name": "Guinea Ecuatorial",
		"englishName": "Equatorial Guinea",
		"flag": "https://firebasestorage.googleapis.com/v0/b/banderasapipaises.appspot.com/o/Banderas%2Fgq.svg?alt=media&token=caeea60a-600f-4999-9a4a-6d6168e4c90f",
		"capital": "Malabo",
		"latitude": 1.650801,
		"longitude": 10.267895,
		"countryCodes": {
			"tld": "gq",
			"iso3": "GNQ",
			"iso2": "GQ",
			"fips": "EK",
			"isoN": 226
		},
		"callCode": [240
		]
	},{
		"id": 188,
		"name": "Guinea-Bissau",
		"englishName": "Guinea-Bissau",
		"flag": "https://firebasestorage.googleapis.com/v0/b/banderasapipaises.appspot.com/o/Banderas%2Fgw.svg?alt=media&token=07867929-c456-499b-92e0-fcc4d76a80b1",
		"capital": "Bissau",
		"latitude": 11.803749,
		"longitude": -15.180413,
		"countryCodes": {
			"tld": "gw",
			"iso3": "GNB",
			"iso2": "GW",
			"fips": "PU",
			"isoN": 624
		},
		"callCode": [245
		]
	},{
		"id": 189,
		"name": "Guyana",
		"englishName": "Guyana",
		"flag": "https://firebasestorage.googleapis.com/v0/b/banderasapipaises.appspot.com/o/Banderas%2Fgy.svg?alt=media&token=913cdecf-23ef-4b48-829c-8ee73e86c272",
		"capital": "Georgetown",
		"latitude": 4.860416,
		"longitude": -58.93018,
		"countryCodes": {
			"tld": "gy",
			"iso3": "GUY",
			"iso2": "GY",
			"fips": "GY",
			"isoN": 328
		},
		"callCode": [592
		]
	},{
		"id": 16,
		"name": "Haiti",
		"englishName": "Haiti",
		"flag": "https://firebasestorage.googleapis.com/v0/b/banderasapipaises.appspot.com/o/Banderas%2Fht.svg?alt=media&token=f6761f54-c7c8-4db8-8baf-e513bc7a6d28",
		"capital": "Puerto Príncipe",
		"latitude": 18.971187,
		"longitude": -72.285215,
		"countryCodes": {
			"tld": "ht",
			"iso3": "HTI",
			"iso2": "HT",
			"fips": "HA",
			"isoN": 332
		},
		"callCode": [509
		]
	},{
		"id": 137,
		"name": "Honduras",
		"englishName": "Honduras",
		"flag": "https://firebasestorage.googleapis.com/v0/b/banderasapipaises.appspot.com/o/Banderas%2Fhn.svg?alt=media&token=e6cc0cc9-843b-4e78-b186-c768f6f5c010",
		"capital": "Tegucigalpa",
		"latitude": 15.199999,
		"longitude": -86.241905,
		"countryCodes": {
			"tld": "hn",
			"iso3": "HND",
			"iso2": "HN",
			"fips": "HO",
			"isoN": 340
		},
		"callCode": [504
		]
	},{
		"id": 73,
		"name": "Hong Kong",
		"englishName": "Hong Kong",
		"flag": "https://firebasestorage.googleapis.com/v0/b/banderasapipaises.appspot.com/o/Banderas%2Fhk.svg?alt=media&token=7a52f163-f982-44c3-aefd-09766fde0f8d",
		"capital": "Hong Kong",
		"latitude": 22.396428,
		"longitude": 114.109497,
		"countryCodes": {
			"tld": "hk",
			"iso3": "HKG",
			"iso2": "HK",
			"fips": "HK",
			"isoN": 344
		},
		"callCode": [852
		]
	},{
		"id": 14,
		"name": "Hungría",
		"englishName": "Hungary",
		"flag": "https://firebasestorage.googleapis.com/v0/b/banderasapipaises.appspot.com/o/Banderas%2Fhu.svg?alt=media&token=4af07093-ffea-4683-92a7-654f9c72acfe",
		"capital": "Budapest",
		"latitude": 47.162494,
		"longitude": 19.503304,
		"countryCodes": {
			"tld": "hu",
			"iso3": "HUN",
			"iso2": "HU",
			"fips": "HU",
			"isoN": 348
		},
		"callCode": [36
		]
	},{
		"id": 25,
		"name": "India",
		"englishName": "India",
		"flag": "https://firebasestorage.googleapis.com/v0/b/banderasapipaises.appspot.com/o/Banderas%2Fin.svg?alt=media&token=a13c3c1b-9612-4a9b-b552-ca34a33bbd2e",
		"capital": "Nueva Delhi",
		"latitude": 20.593684,
		"longitude": 78.96288,
		"countryCodes": {
			"tld": "in",
			"iso3": "IND",
			"iso2": "IN",
			"fips": "IN",
			"isoN": 356
		},
		"callCode": [91
		]
	},{
		"id": 74,
		"name": "Indonesia",
		"englishName": "Indonesia",
		"flag": "https://firebasestorage.googleapis.com/v0/b/banderasapipaises.appspot.com/o/Banderas%2Fid.svg?alt=media&token=d36a68d9-de4f-4826-886f-d7f8cf197cd7",
		"capital": "Yakarta",
		"latitude": -0.789275,
		"longitude": 113.921327,
		"countryCodes": {
			"tld": "id",
			"iso3": "IDN",
			"iso2": "ID",
			"fips": "ID",
			"isoN": 360
		},
		"callCode": [62
		]
	},{
		"id": 140,
		"name": "Irak",
		"englishName": "Iraq",
		"flag": "https://firebasestorage.googleapis.com/v0/b/banderasapipaises.appspot.com/o/Banderas%2Fiq.svg?alt=media&token=0233bf70-2a99-4420-b5b3-73b47d5491b3",
		"capital": "Bagdad",
		"latitude": 33.223191,
		"longitude": 43.679291,
		"countryCodes": {
			"tld": "iq",
			"iso3": "IRQ",
			"iso2": "IQ",
			"fips": "IZ",
			"isoN": 368
		},
		"callCode": [964
		]
	},{
		"id": 26,
		"name": "Irán",
		"englishName": "iRAN",
		"flag": "https://firebasestorage.googleapis.com/v0/b/banderasapipaises.appspot.com/o/Banderas%2Fir.svg?alt=media&token=dfd52d1d-30d0-4aed-bf2d-a7c1538675a8",
		"capital": "Teherán",
		"latitude": 32.427908,
		"longitude": 53.688046,
		"countryCodes": {
			"tld": "ir",
			"iso3": "IRN",
			"iso2": "IR",
			"fips": "IR",
			"isoN": 364
		},
		"callCode": [98
		]
	},{
		"id": 27,
		"name": "Irlanda",
		"englishName": "Ireland",
		"flag": "https://firebasestorage.googleapis.com/v0/b/banderasapipaises.appspot.com/o/Banderas%2Fie.svg?alt=media&token=63dc2082-2c99-4f02-9941-3108ae1fc159",
		"capital": "Dublín",
		"latitude": 53.41291,
		"longitude": -8.24389,
		"countryCodes": {
			"tld": "ie",
			"iso3": "IRL",
			"iso2": "IE",
			"fips": "EI",
			"isoN": 372
		},
		"callCode": [353
		]
	},{
		"id": 215,
		"name": "Isla Pitcairn",
		"englishName": "Pitcairn Island",
		"flag": "https://firebasestorage.googleapis.com/v0/b/banderasapipaises.appspot.com/o/Banderas%2Fpn.svg?alt=media&token=f2d950a4-15d5-4c6e-88e8-f81c1a490bc5",
		"capital": "Adamstown",
		"latitude": -24.703615,
		"longitude": -127.439308,
		"countryCodes": {
			"tld": "pn",
			"iso3": "PCN",
			"iso2": "PN",
			"fips": "PC",
			"isoN": 612
		},
		"callCode": [64
		]
	},{
		"id": 83,
		"name": "Islandia",
		"englishName": "Iceland",
		"flag": "https://firebasestorage.googleapis.com/v0/b/banderasapipaises.appspot.com/o/Banderas%2Fis.svg?alt=media&token=0f585dcd-4902-427d-9fda-101a2b93139f",
		"capital": "Reikiavik",
		"latitude": 64.963051,
		"longitude": -19.020835,
		"countryCodes": {
			"tld": "is",
			"iso3": "ISL",
			"iso2": "IS",
			"fips": "IC",
			"isoN": 352
		},
		"callCode": [354
		]
	},{
		"id": 228,
		"name": "Islas Salomón",
		"englishName": "Solomon Islands",
		"flag": "https://firebasestorage.googleapis.com/v0/b/banderasapipaises.appspot.com/o/Banderas%2Fsb.svg?alt=media&token=59f55977-36a7-4d32-a434-c8d0eab4002e",
		"capital": "Honiara",
		"latitude": -9.64571,
		"longitude": 160.15619,
		"countryCodes": {
			"tld": "sb",
			"iso3": "SLB",
			"iso2": "SB",
			"fips": "BP",
			"isoN": 90
		},
		"callCode": [677
		]
	},{
		"id": 58,
		"name": "Islas Turcas y Caicos",
		"englishName": "Turks and Caicos Islands",
		"flag": "https://firebasestorage.googleapis.com/v0/b/banderasapipaises.appspot.com/o/Banderas%2Ftc.svg?alt=media&token=25de9eac-eae0-421c-ba64-3473cae82f5a",
		"capital": "Cockburn Town",
		"latitude": 21.694025,
		"longitude": -71.797928,
		"countryCodes": {
			"tld": "tc",
			"iso3": "TCA",
			"iso2": "TC",
			"fips": "TK",
			"isoN": 796
		},
		"callCode": [1649
		]
	},{
		"id": 154,
		"name": "Islas Virgenes Británicas",
		"englishName": "Virgin Islands",
		"flag": "https://firebasestorage.googleapis.com/v0/b/banderasapipaises.appspot.com/o/Banderas%2Fvi.svg?alt=media&token=5c26cde1-5abc-4e67-a195-6198a2f3abb1",
		"capital": "Road Town",
		"latitude": 18.420695,
		"longitude": -64.639968,
		"countryCodes": {
			"tld": "vi",
			"iso3": "VIR",
			"iso2": "VI",
			"fips": "VIQ",
			"isoN": 850
		}
	},{
		"id": 24,
		"name": "Israel",
		"englishName": "Israel",
		"flag": "https://firebasestorage.googleapis.com/v0/b/banderasapipaises.appspot.com/o/Banderas%2Fil.svg?alt=media&token=d5fe07b5-03de-4a1e-a536-be2eef8800fd",
		"capital": "Jerusalén",
		"latitude": 31.046051,
		"longitude": 34.851612,
		"countryCodes": {
			"tld": "il",
			"iso3": "ISR",
			"iso2": "IL",
			"fips": "IS",
			"isoN": 376
		},
		"callCode": [972
		]
	},{
		"id": 29,
		"name": "Italia",
		"englishName": "Italy",
		"flag": "https://firebasestorage.googleapis.com/v0/b/banderasapipaises.appspot.com/o/Banderas%2Fit.svg?alt=media&token=e71b3307-198f-488b-91ca-b5754fe990fb",
		"capital": "Roma",
		"latitude": 41.87194,
		"longitude": 12.56738,
		"countryCodes": {
			"tld": "it",
			"iso3": "ITA",
			"iso2": "IT",
			"fips": "IT",
			"isoN": 380
		},
		"callCode": [39
		]
	},{
		"id": 132,
		"name": "Jamaica",
		"englishName": "Jamaica",
		"flag": "https://firebasestorage.googleapis.com/v0/b/banderasapipaises.appspot.com/o/Banderas%2Fjm.svg?alt=media&token=93e481bd-8e3f-49d6-b5b5-f4925c74e007",
		"capital": "Kingston",
		"latitude": 18.109581,
		"longitude": -77.297508,
		"countryCodes": {
			"tld": "jm",
			"iso3": "JAM",
			"iso2": "JM",
			"fips": "JM",
			"isoN": 388
		},
		"callCode": [1876
		]
	},{
		"id": 70,
		"name": "Japón",
		"englishName": "Japan",
		"flag": "https://firebasestorage.googleapis.com/v0/b/banderasapipaises.appspot.com/o/Banderas%2Fjp.svg?alt=media&token=9a0e41e2-4265-42e2-a7e8-9671652ad055",
		"capital": "Tokio",
		"latitude": 36.204824,
		"longitude": -138.252924,
		"countryCodes": {
			"tld": "jp",
			"iso3": "JPN",
			"iso2": "JP",
			"fips": "JA",
			"isoN": 392
		},
		"callCode": [81
		]
	},{
		"id": 193,
		"name": "Jersey",
		"englishName": "Jersey",
		"flag": "https://firebasestorage.googleapis.com/v0/b/banderasapipaises.appspot.com/o/Banderas%2Fje.svg?alt=media&token=8cc80c56-5ce5-4e8f-85b0-4205710a2818",
		"capital": "Saint Helier",
		"latitude": 49.214439,
		"longitude": -2.13125,
		"countryCodes": {
			"tld": "je",
			"iso3": "JEY",
			"iso2": "JE",
			"fips": "JE",
			"isoN": 832
		},
		"callCode": [44
		]
	},{
		"id": 75,
		"name": "Jordania",
		"englishName": "Jordan",
		"flag": "https://firebasestorage.googleapis.com/v0/b/banderasapipaises.appspot.com/o/Banderas%2Fjo.svg?alt=media&token=ff4f47c5-c391-4b07-92c5-e6514d373f10",
		"capital": "Amán",
		"latitude": 30.585164,
		"longitude": 36.238414,
		"countryCodes": {
			"tld": "jo",
			"iso3": "JOR",
			"iso2": "JO",
			"fips": "JO",
			"isoN": 400
		},
		"callCode": [962
		]
	},{
		"id": 30,
		"name": "Kazajistán",
		"englishName": "Kazakhstan",
		"flag": "https://firebasestorage.googleapis.com/v0/b/banderasapipaises.appspot.com/o/Banderas%2Fkz.svg?alt=media&token=54477830-947c-4cd5-aab5-dc01e612ef80",
		"capital": "Astaná",
		"latitude": 48.019573,
		"longitude": 66.923684,
		"countryCodes": {
			"tld": "kz",
			"iso3": "KAZ",
			"iso2": "KZ",
			"fips": "KZ",
			"isoN": 398
		},
		"callCode": [76,77
		]
	},{
		"id": 97,
		"name": "Kenia",
		"englishName": "Kenya",
		"flag": "https://firebasestorage.googleapis.com/v0/b/banderasapipaises.appspot.com/o/Banderas%2Fke.svg?alt=media&token=5d2f2659-11b3-41d4-bd9d-c14ef2b21abc",
		"capital": "Nairobi",
		"latitude": -0.023559,
		"longitude": 37.906193,
		"countryCodes": {
			"tld": "ke",
			"iso3": "KEN",
			"iso2": "KE",
			"fips": "KE",
			"isoN": 404
		},
		"callCode": [254
		]
	},{
		"id": 34,
		"name": "Kirguistán",
		"englishName": "Kyrgyzstan",
		"flag": "https://firebasestorage.googleapis.com/v0/b/banderasapipaises.appspot.com/o/Banderas%2Fkg.svg?alt=media&token=274b3e8f-fa8b-416d-84a9-2b4e3229ccb3",
		"capital": "Biskek",
		"latitude": 41.20438,
		"longitude": 74.766098,
		"countryCodes": {
			"tld": "kg",
			"iso3": "KGZ",
			"iso2": "KG",
			"fips": "KG",
			"isoN": 417
		}
	},{
		"id": 195,
		"name": "Kiribati",
		"englishName": "Kiribati",
		"flag": "https://firebasestorage.googleapis.com/v0/b/banderasapipaises.appspot.com/o/Banderas%2Fki.svg?alt=media&token=39b031f1-8ebc-40c9-b381-4bf8bdc05704",
		"capital": "Tarawa",
		"latitude": -3.370417,
		"longitude": -168.734039,
		"countryCodes": {
			"tld": "ki",
			"iso3": "KIR",
			"iso2": "KI",
			"fips": "KR",
			"isoN": 296
		},
		"callCode": [686
		]
	},{
		"id": 37,
		"name": "Kuwait",
		"englishName": "Kuwait",
		"flag": "https://firebasestorage.googleapis.com/v0/b/banderasapipaises.appspot.com/o/Banderas%2Fkw.svg?alt=media&token=ef657903-f0d8-4966-9ebb-313308378a4c",
		"capital": "Ciudad de Kuwait",
		"latitude": 29.31166,
		"longitude": 47.481766,
		"countryCodes": {
			"tld": "kw",
			"iso3": "KWT",
			"iso2": "KW",
			"fips": "KU",
			"isoN": 414
		},
		"callCode": [965
		]
	},{
		"id": 196,
		"name": "Laos",
		"englishName": "Laos",
		"flag": "https://firebasestorage.googleapis.com/v0/b/banderasapipaises.appspot.com/o/Banderas%2Fla.svg?alt=media&token=cb0b99d1-2ae4-4952-b31a-b3cd554b667d",
		"capital": "Vientián",
		"latitude": 19.85627,
		"longitude": 102.495496,
		"countryCodes": {
			"tld": "la",
			"iso3": "LAO",
			"iso2": "LA",
			"fips": "LA",
			"isoN": 418
		},
		"callCode": [856
		]
	},{
		"id": 197,
		"name": "Lesotho",
		"englishName": "Lesotho",
		"flag": "https://firebasestorage.googleapis.com/v0/b/banderasapipaises.appspot.com/o/Banderas%2Fls.svg?alt=media&token=5745358e-4ddf-4284-b37e-a165b6841e77",
		"capital": "Maseru",
		"latitude": -29.609988,
		"longitude": 28.233608,
		"countryCodes": {
			"tld": "ls",
			"iso3": "LSO",
			"iso2": "LS",
			"fips": "LT",
			"isoN": 426
		},
		"callCode": [266
		]
	},{
		"id": 38,
		"name": "Letonia",
		"englishName": "Latvia",
		"flag": "https://firebasestorage.googleapis.com/v0/b/banderasapipaises.appspot.com/o/Banderas%2Flv.svg?alt=media&token=fe9d3f83-20f6-4d61-a184-d35a9074f7ab",
		"capital": "Riga",
		"latitude": 56.879635,
		"longitude": 24.603189,
		"countryCodes": {
			"tld": "lv",
			"iso3": "LVA",
			"iso2": "LV",
			"fips": "LG",
			"isoN": 428
		},
		"callCode": [371
		]
	},{
		"id": 99,
		"name": "Líbano",
		"englishName": "Lebanon",
		"flag": "https://firebasestorage.googleapis.com/v0/b/banderasapipaises.appspot.com/o/Banderas%2Flb.svg?alt=media&token=447092e9-bb00-4dc1-99be-fb43746ecedd",
		"capital": "Beirut",
		"latitude": 33.85472,
		"longitude": 35.862285,
		"countryCodes": {
			"tld": "lb",
			"iso3": "LBN",
			"iso2": "LB",
			"fips": "LE",
			"isoN": 422
		},
		"callCode": [961
		]
	},{
		"id": 198,
		"name": "Liberia",
		"englishName": "Liberia",
		"flag": "https://firebasestorage.googleapis.com/v0/b/banderasapipaises.appspot.com/o/Banderas%2Flr.svg?alt=media&token=da142840-1bf9-425c-be4a-a0bfb43c03ab",
		"capital": "Monrovia",
		"latitude": 6.428055,
		"longitude": -9.429499,
		"countryCodes": {
			"tld": "lr",
			"iso3": "LBR",
			"iso2": "LR",
			"fips": "LI",
			"isoN": 430
		},
		"callCode": [231
		]
	},{
		"id": 39,
		"name": "Libia",
		"englishName": "Libya",
		"flag": "https://firebasestorage.googleapis.com/v0/b/banderasapipaises.appspot.com/o/Banderas%2Fly.svg?alt=media&token=8541e267-7995-41b1-a1a1-c45b53afc715",
		"capital": "Trípolit",
		"latitude": 26.3351,
		"longitude": 17.228331,
		"countryCodes": {
			"tld": "ly",
			"iso3": "LBY",
			"iso2": "LY",
			"fips": "LY",
			"isoN": 434
		},
		"callCode": [218
		]
	},{
		"id": 126,
		"name": "Liechtenstein",
		"englishName": "Liechtenstein",
		"flag": "https://firebasestorage.googleapis.com/v0/b/banderasapipaises.appspot.com/o/Banderas%2Fli.svg?alt=media&token=2921e578-2690-47f4-a5a2-8a5a598e9aa5",
		"capital": "Vaduz",
		"latitude": 47.166,
		"longitude": 9.555373,
		"countryCodes": {
			"tld": "li",
			"iso3": "LIE",
			"iso2": "LI",
			"fips": "LS",
			"isoN": 438
		},
		"callCode": [423
		]
	},{
		"id": 40,
		"name": "Lituania",
		"englishName": "Lithuania",
		"flag": "https://firebasestorage.googleapis.com/v0/b/banderasapipaises.appspot.com/o/Banderas%2Flt.svg?alt=media&token=14337303-7c78-4079-8308-c42c6c7430b0",
		"capital": "Vilna",
		"latitude": 55.169438,
		"longitude": 23.881275,
		"countryCodes": {
			"tld": "lt",
			"iso3": "LTU",
			"iso2": "LT",
			"fips": "LH",
			"isoN": 440
		},
		"callCode": [370
		]
	},{
		"id": 41,
		"name": "Luxemburgo",
		"englishName": "Luxembourg",
		"flag": "https://firebasestorage.googleapis.com/v0/b/banderasapipaises.appspot.com/o/Banderas%2Flu.svg?alt=media&token=97fbbad1-1c3c-4d4f-a895-0396071ff266",
		"capital": "Luxemburgo",
		"latitude": 49.815273,
		"longitude": 6.129583,
		"countryCodes": {
			"tld": "lu",
			"iso3": "LUX",
			"iso2": "LU",
			"fips": "LU",
			"isoN": 442
		},
		"callCode": [352
		]
	},{
		"id": 85,
		"name": "Macedonia",
		"englishName": "Macedonia",
		"flag": "https://firebasestorage.googleapis.com/v0/b/banderasapipaises.appspot.com/o/Banderas%2Fmk.svg?alt=media&token=c6c4ecda-1b32-4857-916f-d147a9bb5b6d",
		"capital": "Skopie",
		"latitude": 41.608635,
		"longitude": 21.745275,
		"countryCodes": {
			"tld": "mk",
			"iso3": "MKD",
			"iso2": "MK",
			"fips": "MK",
			"isoN": 807
		},
		"callCode": [389
		]
	},{
		"id": 134,
		"name": "Madagascar",
		"englishName": "Madagascar",
		"flag": "https://firebasestorage.googleapis.com/v0/b/banderasapipaises.appspot.com/o/Banderas%2Fmg.svg?alt=media&token=72e32310-a9b9-4254-93be-5c40f338d2b3",
		"capital": "Antananarivo",
		"latitude": -18.766947,
		"longitude": 46.869107,
		"countryCodes": {
			"tld": "mg",
			"iso3": "MDG",
			"iso2": "MG",
			"fips": "MA",
			"isoN": 450
		},
		"callCode": [261
		]
	},{
		"id": 76,
		"name": "Malasia",
		"englishName": "Malaysia",
		"flag": "https://firebasestorage.googleapis.com/v0/b/banderasapipaises.appspot.com/o/Banderas%2Fmy.svg?alt=media&token=2417bda8-7258-4b19-94fe-437931777215",
		"capital": "Kuala Lumpur",
		"latitude": 4.210484,
		"longitude": 101.975766,
		"countryCodes": {
			"tld": "my",
			"iso3": "MYS",
			"iso2": "MY",
			"fips": "MY",
			"isoN": 458
		},
		"callCode": [60
		]
	},{
		"id": 125,
		"name": "Malawi",
		"englishName": "Malawi",
		"flag": "https://firebasestorage.googleapis.com/v0/b/banderasapipaises.appspot.com/o/Banderas%2Fmw.svg?alt=media&token=ea1c8cc5-fd53-4c9b-a420-59dfbd645495",
		"capital": "Lilongüe",
		"latitude": -13.254308,
		"longitude": 34.301525,
		"countryCodes": {
			"tld": "mw",
			"iso3": "MWI",
			"iso2": "MW",
			"fips": "MI",
			"isoN": 454
		},
		"callCode": [265
		]
	},{
		"id": 200,
		"name": "Maldivas",
		"englishName": "Maldives",
		"flag": "https://firebasestorage.googleapis.com/v0/b/banderasapipaises.appspot.com/o/Banderas%2Fmv.svg?alt=media&token=35df44fc-aaaa-429b-b930-beb51db14b8b",
		"capital": "Malé",
		"latitude": 3.202778,
		"longitude": 73.22068,
		"countryCodes": {
			"tld": "mv",
			"iso3": "MDV",
			"iso2": "MV",
			"fips": "MV",
			"isoN": 462
		},
		"callCode": [960
		]
	},{
		"id": 133,
		"name": "Malí",
		"englishName": "Mali",
		"flag": "https://firebasestorage.googleapis.com/v0/b/banderasapipaises.appspot.com/o/Banderas%2Fml.svg?alt=media&token=854ba401-98f1-4934-a987-1e613b8eb005",
		"capital": "Bamako",
		"latitude": 17.570692,
		"longitude": -3.996166,
		"countryCodes": {
			"tld": "ml",
			"iso3": "MLI",
			"iso2": "ML",
			"fips": "ML",
			"isoN": 466
		},
		"callCode": [223
		]
	},{
		"id": 86,
		"name": "Malta",
		"englishName": "Malta",
		"flag": "https://firebasestorage.googleapis.com/v0/b/banderasapipaises.appspot.com/o/Banderas%2Fmt.svg?alt=media&token=039fcfa1-d99a-478e-b7c9-f2c9bb706b02",
		"capital": "La Valeta",
		"latitude": 35.937496,
		"longitude": 14.375416,
		"countryCodes": {
			"tld": "mt",
			"iso3": "MLT",
			"iso2": "MT",
			"fips": "MT",
			"isoN": 470
		},
		"callCode": [356
		]
	},{
		"id": 131,
		"name": "Isla de Man",
		"englishName": "Isle of Man",
		"flag": "https://firebasestorage.googleapis.com/v0/b/banderasapipaises.appspot.com/o/Banderas%2Fim.svg?alt=media&token=914c47c7-f3d8-4d60-8de5-cbbf48392c89",
		"capital": "Douglas",
		"latitude": 54.236107,
		"longitude": -4.548056,
		"countryCodes": {
			"tld": "im",
			"iso3": "IMN",
			"iso2": "IM",
			"fips": "IM",
			"isoN": 833
		},
		"callCode": [44
		]
	},{
		"id": 104,
		"name": "Marruecos",
		"englishName": "Morocco",
		"flag": "https://firebasestorage.googleapis.com/v0/b/banderasapipaises.appspot.com/o/Banderas%2Fma.svg?alt=media&token=82442a09-b8e5-4259-919e-d301e67ecd34",
		"capital": "Rabat",
		"latitude": 31.791702,
		"longitude": -7.09262,
		"countryCodes": {
			"tld": "ma",
			"iso3": "MAR",
			"iso2": "MA",
			"fips": "MO",
			"isoN": 504
		},
		"callCode": [212
		]
	},{
		"id": 201,
		"name": "Martinica",
		"englishName": "Martinica",
		"flag": "https://firebasestorage.googleapis.com/v0/b/banderasapipaises.appspot.com/o/Banderas%2Fmq.svg?alt=media&token=57eeb362-b9fb-4670-9c29-ae13984ebf9f",
		"capital": "Fort-de-France",
		"latitude": 14.641528,
		"longitude": -61.024174,
		"countryCodes": {
			"tld": "mq",
			"iso3": "MTQ",
			"iso2": "MQ",
			"fips": "MQ",
			"isoN": 474
		},
		"callCode": [596
		]
	},{
		"id": 202,
		"name": "Mauricio",
		"englishName": "Mauritius",
		"flag": "https://firebasestorage.googleapis.com/v0/b/banderasapipaises.appspot.com/o/Banderas%2Fmu.svg?alt=media&token=a79deb00-3bab-4df5-a666-6cf75f7b5d1f",
		"capital": "Port Louis",
		"latitude": -20.348404,
		"longitude": 57.552152,
		"countryCodes": {
			"tld": "mu",
			"iso3": "MUS",
			"iso2": "MU",
			"fips": "MP",
			"isoN": 470
		},
		"callCode": [230
		]
	},{
		"id": 108,
		"name": "Mauritania",
		"englishName": "Mauritania",
		"flag": "https://firebasestorage.googleapis.com/v0/b/banderasapipaises.appspot.com/o/Banderas%2Fmr.svg?alt=media&token=2eb63cfa-47ed-46d5-b25f-bc3392096c19",
		"capital": "Nuakchot",
		"latitude": 21.00789,
		"longitude": -10.940835,
		"countryCodes": {
			"tld": "mr",
			"iso3": "MRT",
			"iso2": "MR",
			"fips": "MR",
			"isoN": 478
		},
		"callCode": [222
		]
	},{
		"id": 42,
		"name": "México",
		"englishName": "Mexico",
		"flag": "https://firebasestorage.googleapis.com/v0/b/banderasapipaises.appspot.com/o/Banderas%2Fmx.svg?alt=media&token=3e82137f-7d5b-4c9e-9bde-750efaa652d4",
		"capital": "Ciudad de México",
		"latitude": 23.634501,
		"longitude": -102.552784,
		"countryCodes": {
			"tld": "mx",
			"iso3": "MEX",
			"iso2": "MX",
			"fips": "MX",
			"isoN": 484
		},
		"callCode": [52
		]
	},{
		"id": 43,
		"name": "Moldavia",
		"englishName": "Moldova",
		"flag": "https://firebasestorage.googleapis.com/v0/b/banderasapipaises.appspot.com/o/Banderas%2Fmd.svg?alt=media&token=0c124cf2-d026-43be-b5a5-59e5a2214a56",
		"capital": "Chisinau",
		"latitude": 47.411631,
		"longitude": 28.369885,
		"countryCodes": {
			"tld": "md",
			"iso3": "MDA",
			"iso2": "MD",
			"fips": "MD",
			"isoN": 498
		},
		"callCode": [373
		]
	},{
		"id": 44,
		"name": "Mónaco",
		"englishName": "Monaco",
		"flag": "https://firebasestorage.googleapis.com/v0/b/banderasapipaises.appspot.com/o/Banderas%2Fmc.svg?alt=media&token=b929668d-947d-4237-9bc9-1d23a84c3fae",
		"capital": "Mónaco",
		"latitude": 43.750298,
		"longitude": 7.412841,
		"countryCodes": {
			"tld": "mc",
			"iso3": "MCO",
			"iso2": "MC",
			"fips": "MN",
			"isoN": 498
		},
		"callCode": [377
		]
	},{
		"id": 139,
		"name": "Mongolia",
		"englishName": "Mongolia",
		"flag": "https://firebasestorage.googleapis.com/v0/b/banderasapipaises.appspot.com/o/Banderas%2Fmn.svg?alt=media&token=ecfeba1f-c751-48c9-9499-dc9571da2ee2",
		"capital": "Ulán Bator",
		"latitude": 46.862496,
		"longitude": 103.846656,
		"countryCodes": {
			"tld": "mn",
			"iso3": "MNG",
			"iso2": "MN",
			"fips": "MG",
			"isoN": 496
		},
		"callCode": [976
		]
	},{
		"id": 117,
		"name": "Mozambique",
		"englishName": "Mozambique",
		"flag": "https://firebasestorage.googleapis.com/v0/b/banderasapipaises.appspot.com/o/Banderas%2Fmz.svg?alt=media&token=254b0499-26ab-41c5-93f6-a823189f8aa8",
		"capital": "Maputo",
		"latitude": -18.665695,
		"longitude": 35.529562,
		"countryCodes": {
			"tld": "mz",
			"iso3": "MOZ",
			"iso2": "MZ",
			"fips": "MZ",
			"isoN": 508
		},
		"callCode": [258
		]
	},{
		"id": 205,
		"name": "Myanmar",
		"englishName": "Myanmar",
		"flag": "https://firebasestorage.googleapis.com/v0/b/banderasapipaises.appspot.com/o/Banderas%2Fmm.svg?alt=media&token=70f8eff9-8d3b-47e0-957a-31ea082bc4c8",
		"capital": "Naipyidó",
		"latitude": 21.913965,
		"longitude": 95.956223,
		"countryCodes": {
			"tld": "mm",
			"iso3": "MMR",
			"iso2": "MM",
			"fips": "BM",
			"isoN": 104
		},
		"callCode": [95
		]
	},{
		"id": 102,
		"name": "Namibia",
		"englishName": "Namibia",
		"flag": "https://firebasestorage.googleapis.com/v0/b/banderasapipaises.appspot.com/o/Banderas%2Fna.svg?alt=media&token=cda48173-1356-4584-9b02-f977468463ff",
		"capital": "Windhoek",
		"latitude": -22.95764,
		"longitude": 18.49041,
		"countryCodes": {
			"tld": "na",
			"iso3": "NAM",
			"iso2": "MNA",
			"fips": "WA",
			"isoN": 516
		},
		"callCode": [264
		]
	},{
		"id": 206,
		"name": "Nauru",
		"englishName": "Nauru",
		"flag": "https://firebasestorage.googleapis.com/v0/b/banderasapipaises.appspot.com/o/Banderas%2Fnr.svg?alt=media&token=ae4dc419-1eaa-4f58-a46e-a0883f63ee97",
		"capital": "Yaren",
		"latitude": -0.522778,
		"longitude": 166.931503,
		"countryCodes": {
			"tld": "nr",
			"iso3": "NRU",
			"iso2": "NR",
			"fips": "NR",
			"isoN": 520
		},
		"callCode": [674
		]
	},{
		"id": 107,
		"name": "Nepal",
		"englishName": "Nepal",
		"flag": "https://firebasestorage.googleapis.com/v0/b/banderasapipaises.appspot.com/o/Banderas%2Fnp.svg?alt=media&token=e918001c-ecc4-487a-9fac-0c95d41693b2",
		"capital": "Katmandú",
		"latitude": 28.394857,
		"longitude": 84.124008,
		"countryCodes": {
			"tld": "np",
			"iso3": "NPL",
			"iso2": "NP",
			"fips": "NP",
			"isoN": 524
		},
		"callCode": [977
		]
	},{
		"id": 209,
		"name": "Nicaragua",
		"englishName": "Nicaragua",
		"flag": "https://firebasestorage.googleapis.com/v0/b/banderasapipaises.appspot.com/o/Banderas%2Fni.svg?alt=media&token=aaeee57c-dc9b-4ba1-a55f-8d6c5994000d",
		"capital": "Managua",
		"latitude": 12.865416,
		"longitude": -85.207229,
		"countryCodes": {
			"tld": "ni",
			"iso3": "NIC",
			"iso2": "NI",
			"fips": "NU",
			"isoN": 558
		},
		"callCode": [505
		]
	},{
		"id": 210,
		"name": "Níger",
		"englishName": "Niger",
		"flag": "https://firebasestorage.googleapis.com/v0/b/banderasapipaises.appspot.com/o/Banderas%2Fne.svg?alt=media&token=549a619d-eb77-477f-9085-93c35a3a4a01",
		"capital": "Niamey",
		"latitude": 17.607789,
		"longitude": 8.081666,
		"countryCodes": {
			"tld": "ne",
			"iso3": "NER",
			"iso2": "NE",
			"fips": "NG",
			"isoN": 562
		},
		"callCode": [227
		]
	},{
		"id": 115,
		"name": "Nigeria",
		"englishName": "Nigeria",
		"flag": "https://firebasestorage.googleapis.com/v0/b/banderasapipaises.appspot.com/o/Banderas%2Fng.svg?alt=media&token=1d4572b1-fc5a-4a0f-aff2-01efccd0b07d",
		"capital": "Abuya",
		"latitude": 9.081999,
		"longitude": 8.675277,
		"countryCodes": {
			"tld": "ng",
			"iso3": "NGA",
			"iso2": "NG",
			"fips": "NI",
			"isoN": 566
		},
		"callCode": [234
		]
	},{
		"id": 212,
		"name": "Isla de Norfolk",
		"englishName": "Norfolk Island",
		"flag": "https://firebasestorage.googleapis.com/v0/b/banderasapipaises.appspot.com/o/Banderas%2Fnf.svg?alt=media&token=32f88bf9-7ea3-4bf6-9dd8-9900361008ba",
		"capital": "Kingston",
		"latitude": -29.040835,
		"longitude": 167.954712,
		"countryCodes": {
			"tld": "nf",
			"iso3": "NFK",
			"iso2": "NF",
			"fips": "NF",
			"isoN": 574
		},
		"callCode": [672
		]
	},{
		"id": 46,
		"name": "Noruega",
		"englishName": "Norway",
		"flag": "https://firebasestorage.googleapis.com/v0/b/banderasapipaises.appspot.com/o/Banderas%2Fno.svg?alt=media&token=758b7823-66f7-4b8a-8111-0bd19f57497e",
		"capital": "Oslo",
		"latitude": 60.472024,
		"longitude": 8.468946,
		"countryCodes": {
			"tld": "no",
			"iso3": "NOR",
			"iso2": "NO",
			"fips": "NO",
			"isoN": 578
		},
		"callCode": [47
		]
	},{
		"id": 208,
		"name": "Nueva Caledonia",
		"englishName": "New Caledonia",
		"flag": "https://firebasestorage.googleapis.com/v0/b/banderasapipaises.appspot.com/o/Banderas%2Fnc.svg?alt=media&token=5362be95-336f-42aa-bedb-b1cfca53418a",
		"capital": "Numea",
		"latitude": -20.904305,
		"longitude": 165.618042,
		"countryCodes": {
			"tld": "nc",
			"iso3": "NCL",
			"iso2": "NC",
			"fips": "NC",
			"isoN": 540
		},
		"callCode": [687
		]
	},{
		"id": 45,
		"name": "Nueva Zelanda",
		"englishName": "New Zealand",
		"flag": "https://firebasestorage.googleapis.com/v0/b/banderasapipaises.appspot.com/o/Banderas%2Fnz.svg?alt=media&token=2bc2f2bc-f3bf-4fcd-bc05-36df4dba4691",
		"capital": "Wellington",
		"latitude": -40.900557,
		"longitude": 174.885971,
		"countryCodes": {
			"tld": "nz",
			"iso3": "NZL",
			"iso2": "NZ",
			"fips": "NZ",
			"isoN": 554
		},
		"callCode": [64
		]
	},{
		"id": 213,
		"name": "Omán",
		"englishName": "Oman",
		"flag": "https://firebasestorage.googleapis.com/v0/b/banderasapipaises.appspot.com/o/Banderas%2Fom.svg?alt=media&token=edcd2a37-cc3c-4fbc-9599-f097a737a071",
		"capital": "Mascate",
		"latitude": 21.512583,
		"longitude": 55.923255,
		"countryCodes": {
			"tld": "om",
			"iso3": "OMN",
			"iso2": "OM",
			"fips": "MU",
			"isoN": 512
		},
		"callCode": [968
		]
	},{
		"id": 19,
		"name": "Países Bajos, Holanda",
		"englishName": "Netherlands",
		"flag": "https://firebasestorage.googleapis.com/v0/b/banderasapipaises.appspot.com/o/Banderas%2Fnl.svg?alt=media&token=21c11392-a664-484a-9a22-c1a8d3405988",
		"capital": "Ámsterdam",
		"latitude": 52.132633,
		"longitude": 5.291266,
		"countryCodes": {
			"tld": "nl",
			"iso3": "NLD",
			"iso2": "NL",
			"fips": "NL",
			"isoN": 528
		},
		"callCode": [31
		]
	},{
		"id": 87,
		"name": "Pakistán",
		"englishName": "Pakistan",
		"flag": "https://firebasestorage.googleapis.com/v0/b/banderasapipaises.appspot.com/o/Banderas%2Fpk.svg?alt=media&token=3f144190-e0e1-4693-a3c6-b565d1521ed7",
		"capital": "Islamabad",
		"latitude": 30.375321,
		"longitude": 69.345116,
		"countryCodes": {
			"tld": "pk",
			"iso3": "PAK",
			"iso2": "PK",
			"fips": "PK",
			"isoN": 586
		},
		"callCode": [92
		]
	},{
		"id": 124,
		"name": "Panamá",
		"englishName": "Panama",
		"flag": "https://firebasestorage.googleapis.com/v0/b/banderasapipaises.appspot.com/o/Banderas%2Fpa.svg?alt=media&token=e435770c-438e-4f4c-a235-dcab48f6973b",
		"capital": "Panamá",
		"latitude": 8.537981,
		"longitude": -80.782127,
		"countryCodes": {
			"tld": "pa",
			"iso3": "PAN",
			"iso2": "PA",
			"fips": "PM",
			"isoN": 591
		},
		"callCode": [507
		]
	},{
		"id": 88,
		"name": "Papúa-Nueva Guinea",
		"englishName": "Papua New Guinea",
		"flag": "https://firebasestorage.googleapis.com/v0/b/banderasapipaises.appspot.com/o/Banderas%2Fpg.svg?alt=media&token=09aaed03-d38f-4342-91e6-47ba825b2afc",
		"capital": "Port Moresby",
		"latitude": -6.314993,
		"longitude": 143.95555,
		"countryCodes": {
			"tld": "pg",
			"iso3": "PNG",
			"iso2": "PG",
			"fips": "PP",
			"isoN": 598
		},
		"callCode": [675
		]
	},{
		"id": 110,
		"name": "Paraguay",
		"englishName": "Paraguay",
		"flag": "https://firebasestorage.googleapis.com/v0/b/banderasapipaises.appspot.com/o/Banderas%2Fpy.svg?alt=media&token=d6afeaa5-9790-4f32-b2cc-b59d2e1d9e38",
		"capital": "Asunción",
		"latitude": -23.442503,
		"longitude": -58.443832,
		"countryCodes": {
			"tld": "py",
			"iso3": "PRY",
			"iso2": "PY",
			"fips": "PA",
			"isoN": 600
		},
		"callCode": [595
		]
	},{
		"id": 89,
		"name": "Perú",
		"englishName": "Peru",
		"flag": "https://firebasestorage.googleapis.com/v0/b/banderasapipaises.appspot.com/o/Banderas%2Fpe.svg?alt=media&token=2bea8b00-c25f-42f6-b8c4-2c3df22187a0",
		"capital": "Lima",
		"latitude": -9.189967,
		"longitude": -75.015152,
		"countryCodes": {
			"tld": "pe",
			"iso3": "PER",
			"iso2": "PE",
			"fips": "PE",
			"isoN": 604
		},
		"callCode": [51
		]
	},{
		"id": 178,
		"name": "Polinesia Francesa",
		"englishName": "French Polynesia",
		"flag": "https://firebasestorage.googleapis.com/v0/b/banderasapipaises.appspot.com/o/Banderas%2Fpf.svg?alt=media&token=1cb4ccf4-e1fe-4beb-bfc7-39683e5de9f3",
		"capital": "Papeete",
		"latitude": -17.679742,
		"longitude": -149.406843,
		"countryCodes": {
			"tld": "pf",
			"iso3": "PYF",
			"iso2": "PF",
			"fips": "FP",
			"isoN": 258
		},
		"callCode": [689
		]
	},{
		"id": 47,
		"name": "Polonia",
		"englishName": "Poland",
		"flag": "https://firebasestorage.googleapis.com/v0/b/banderasapipaises.appspot.com/o/Banderas%2Fpl.svg?alt=media&token=609a169c-1a01-4173-9ca0-b8b61f4e74b9",
		"capital": "Varsovia",
		"latitude": 51.919438,
		"longitude": 19.145136,
		"countryCodes": {
			"tld": "pl",
			"iso3": "POL",
			"iso2": "PL",
			"fips": "PL",
			"isoN": 258
		},
		"callCode": [48
		]
	},{
		"id": 48,
		"name": "Portugal",
		"englishName": "Portugal",
		"flag": "https://firebasestorage.googleapis.com/v0/b/banderasapipaises.appspot.com/o/Banderas%2Fpt.svg?alt=media&token=0031065b-a120-476a-ae26-851d33ce6d49",
		"capital": "Lisboa",
		"latitude": 39.399872,
		"longitude": -8.224454,
		"countryCodes": {
			"tld": "pt",
			"iso3": "PRT",
			"iso2": "PT",
			"fips": "PO",
			"isoN": 620
		},
		"callCode": [351
		]
	},{
		"id": 246,
		"name": "Puerto Rico",
		"englishName": "Puerto Rico",
		"flag": "https://firebasestorage.googleapis.com/v0/b/banderasapipaises.appspot.com/o/Banderas%2Fpr.svg?alt=media&token=f72e455f-743c-4788-8f03-5fe59ed4521a",
		"capital": "San Juan",
		"latitude": 18.220833,
		"longitude": -66.590149,
		"countryCodes": {
			"tld": "pr",
			"iso3": "PRI",
			"iso2": "PR",
			"fips": "RQ",
			"isoN": 630
		},
		"callCode": [1787,1939
		]
	},{
		"id": 216,
		"name": "Qatar",
		"englishName": "Qatar",
		"flag": "https://firebasestorage.googleapis.com/v0/b/banderasapipaises.appspot.com/o/Banderas%2Fqa.svg?alt=media&token=8a4ab5eb-68d9-47fd-a0b9-c36c1b2bf1cc",
		"capital": "Doha",
		"latitude": 25.354826,
		"longitude": 51.183884,
		"countryCodes": {
			"tld": "qa",
			"iso3": "QAT",
			"iso2": "QA",
			"fips": "QA",
			"isoN": 634
		},
		"callCode": [974
		]
	},{
		"id": 13,
		"name": "Reino Unido",
		"englishName": "United Kingdom",
		"flag": "https://firebasestorage.googleapis.com/v0/b/banderasapipaises.appspot.com/o/Banderas%2Fgb.svg?alt=media&token=2ad8c855-cfbf-4086-a431-ed0ef6fa22b7",
		"capital": "Londres",
		"latitude": 55.378051,
		"longitude": -3.435973,
		"countryCodes": {
			"tld": "uk",
			"iso3": "GBR",
			"iso2": "GB",
			"fips": "UK",
			"isoN": 826
		},
		"callCode": [1284
		]
	},{
		"id": 65,
		"name": "República Checa",
		"englishName": "Czech Republic",
		"flag": "https://firebasestorage.googleapis.com/v0/b/banderasapipaises.appspot.com/o/Banderas%2Fcz.svg?alt=media&token=e64e00f4-87dd-48db-b14f-d6f94ce49827",
		"capital": "Praga",
		"latitude": 49.817492,
		"longitude": -15.472962,
		"countryCodes": {
			"tld": "cz",
			"iso3": "CZE",
			"iso2": "CZ",
			"fips": "EZ",
			"isoN": 203
		},
		"callCode": [420
		]
	},{
		"id": 138,
		"name": "República Dominicana",
		"englishName": "Dominican Republic",
		"flag": "https://firebasestorage.googleapis.com/v0/b/banderasapipaises.appspot.com/o/Banderas%2Fdo.svg?alt=media&token=42715674-c1d1-4d73-a874-44b277a4032b",
		"capital": "Santo Domingo",
		"latitude": 18.735693,
		"longitude": -70.162651,
		"countryCodes": {
			"tld": "do",
			"iso3": "DOM",
			"iso2": "DO",
			"fips": "DR",
			"isoN": 203
		},
		"callCode": [1809,1829,1849
		]
	},{
		"id": 49,
		"name": "Reunión",
		"englishName": "Reunion",
		"flag": "https://firebasestorage.googleapis.com/v0/b/banderasapipaises.appspot.com/o/Banderas%2Fre.svg?alt=media&token=c8b52adf-8cb2-41b9-b853-e97250093930",
		"capital": "Saint-Denis",
		"latitude": -21.115141,
		"longitude": 55.536384,
		"countryCodes": {
			"tld": "re",
			"iso3": "REU",
			"iso2": "RE",
			"fips": "RE",
			"isoN": 638
		},
		"callCode": [262
		]
	},{
		"id": 217,
		"name": "Ruanda",
		"englishName": "Rwanda",
		"flag": "https://firebasestorage.googleapis.com/v0/b/banderasapipaises.appspot.com/o/Banderas%2Frw.svg?alt=media&token=ce454af9-cfed-4fd8-9b74-a3630b1666bb",
		"capital": "Kigali",
		"latitude": -1.940278,
		"longitude": 29.873888,
		"countryCodes": {
			"tld": "rw",
			"iso3": "RWA",
			"iso2": "RW",
			"fips": "RW",
			"isoN": 646
		},
		"callCode": [250
		]
	},{
		"id": 72,
		"name": "Rumanía",
		"englishName": "Romania",
		"flag": "https://firebasestorage.googleapis.com/v0/b/banderasapipaises.appspot.com/o/Banderas%2Fro.svg?alt=media&token=6d27bdaf-3d5d-4b12-ab6c-f17886d3ee90",
		"capital": "Bucarest",
		"latitude": 45.943161,
		"longitude": 24.96676,
		"countryCodes": {
			"tld": "ro",
			"iso3": "ROU",
			"iso2": "RO",
			"fips": "RO",
			"isoN": 642
		},
		"callCode": [40
		]
	},{
		"id": 50,
		"name": "Rusia",
		"englishName": "Russia",
		"flag": "https://firebasestorage.googleapis.com/v0/b/banderasapipaises.appspot.com/o/Banderas%2Fru.svg?alt=media&token=e7c153cb-6738-45bb-8d3d-abd3023eaa01",
		"capital": "Moscú",
		"latitude": 61.52401,
		"longitude": 105.318756,
		"countryCodes": {
			"tld": "ru",
			"iso3": "RUS",
			"iso2": "RU",
			"fips": "RS",
			"isoN": 643
		},
		"callCode": [7
		]
	},{
		"id": 242,
		"name": "Sáhara Occidental",
		"englishName": "Western Sahara",
		"flag": "https://firebasestorage.googleapis.com/v0/b/banderasapipaises.appspot.com/o/Banderas%2Feh.svg?alt=media&token=1146d3e6-4413-4aac-8e16-8636057481bb",
		"capital": "El Aaiún",
		"latitude": 24.215527,
		"longitude": -12.885834,
		"countryCodes": {
			"tld": "eh",
			"iso3": "ESH",
			"iso2": "EH",
			"fips": "WI",
			"isoN": 732
		},
		"callCode": [212
		]
	},{
		"id": 223,
		"name": "Samoa",
		"englishName": "Samoa",
		"flag": "https://firebasestorage.googleapis.com/v0/b/banderasapipaises.appspot.com/o/Banderas%2Fws.svg?alt=media&token=28c439b5-843d-4055-ae6c-462952ca74f2",
		"capital": "Apia",
		"latitude": -13.759029,
		"longitude": -172.104629,
		"countryCodes": {
			"tld": "ws",
			"iso3": "WSM",
			"iso2": "WS",
			"fips": "WS",
			"isoN": 882
		},
		"callCode": [685
		]
	},{
		"id": 219,
		"name": "San Cristobal y Nevis",
		"englishName": "Saint Kitts and Nevis",
		"flag": "https://firebasestorage.googleapis.com/v0/b/banderasapipaises.appspot.com/o/Banderas%2Fkn.svg?alt=media&token=38e4e2ce-1829-4e43-b491-75474faae65c",
		"capital": "Basseterre",
		"latitude": 17.357822,
		"longitude": -62.782998,
		"countryCodes": {
			"tld": "kn",
			"iso3": "KNA",
			"iso2": "KN",
			"fips": "SC",
			"isoN": 659
		}
	},{
		"id": 224,
		"name": "San Marino",
		"englishName": "San Marino",
		"flag": "https://firebasestorage.googleapis.com/v0/b/banderasapipaises.appspot.com/o/Banderas%2Fsm.svg?alt=media&token=0c74635a-7880-4173-85bd-342154c7f68c",
		"capital": "Ciudad de San Marino",
		"latitude": 43.94236,
		"longitude": 12.457777,
		"countryCodes": {
			"tld": "sm",
			"iso3": "SMR",
			"iso2": "SM",
			"fips": "SM",
			"isoN": 674
		},
		"callCode": [378
		]
	},{
		"id": 221,
		"name": "San Pedro y Miquelón",
		"englishName": "Saint Pierre and Miquelon",
		"flag": "https://firebasestorage.googleapis.com/v0/b/banderasapipaises.appspot.com/o/Banderas%2Fpm.svg?alt=media&token=e5f45f0e-322e-46a8-bc0c-7de5c756544b",
		"capital": "San Pedro",
		"latitude": 46.941936,
		"longitude": -56.27111,
		"countryCodes": {
			"tld": "pm",
			"iso3": "SPM",
			"iso2": "PM",
			"fips": "SB",
			"isoN": 666
		},
		"callCode": [508
		]
	},{
		"id": 225,
		"name": "San Tomé y Príncipe",
		"englishName": "Sao Tome and Principe",
		"flag": "https://firebasestorage.googleapis.com/v0/b/banderasapipaises.appspot.com/o/Banderas%2Fst.svg?alt=media&token=71e87f9f-682e-4871-a0f9-0541eb834804",
		"capital": "Santo Tomé",
		"latitude": 0.18636,
		"longitude": 6.613081,
		"countryCodes": {
			"tld": "st",
			"iso3": "STP",
			"iso2": "ST",
			"fips": "TP",
			"isoN": 678
		},
		"callCode": [239
		]
	},{
		"id": 222,
		"name": "San Vicente y Granadinas",
		"englishName": "Saint Vincent and the Grenadines",
		"flag": "https://firebasestorage.googleapis.com/v0/b/banderasapipaises.appspot.com/o/Banderas%2Fvc.svg?alt=media&token=e9bec3dd-fcee-44f5-a37c-13fa0e2f821b",
		"capital": "Kingstown",
		"latitude": 12.984305,
		"longitude": -61.287228,
		"countryCodes": {
			"tld": "vc",
			"iso3": "VCT",
			"iso2": "VC",
			"fips": "VC",
			"isoN": 670
		},
		"callCode": [1784
		]
	},{
		"id": 218,
		"name": "Santa Elena",
		"englishName": "Saint Helena",
		"flag": "https://firebasestorage.googleapis.com/v0/b/banderasapipaises.appspot.com/o/Banderas%2Fsh.svg?alt=media&token=2acbb837-18d1-4771-98f1-7b467268a187",
		"capital": "Jamestown",
		"latitude": -24.143474,
		"longitude": -10.030696,
		"countryCodes": {
			"tld": "sh",
			"iso3": "SHN",
			"iso2": "SH",
			"fips": "SH",
			"isoN": 654
		},
		"callCode": [290
		]
	},{
		"id": 220,
		"name": "Santa Lucía",
		"englishName": "Saint Lucia",
		"flag": "https://firebasestorage.googleapis.com/v0/b/banderasapipaises.appspot.com/o/Banderas%2Fls.svg?alt=media&token=5745358e-4ddf-4284-b37e-a165b6841e77",
		"capital": "Castries",
		"latitude": 13.909444,
		"longitude": -60.978893,
		"countryCodes": {
			"tld": "ls",
			"iso3": "LCA",
			"iso2": "LC",
			"fips": "ST",
			"isoN": 662
		},
		"callCode": [1758
		]
	},{
		"id": 135,
		"name": "Senegal",
		"englishName": "Senegal",
		"flag": "https://firebasestorage.googleapis.com/v0/b/banderasapipaises.appspot.com/o/Banderas%2Fsn.svg?alt=media&token=060aad10-9d02-497c-93cb-d0f9a1e12a68",
		"capital": "Dakar",
		"latitude": 14.497401,
		"longitude": -14.452362,
		"countryCodes": {
			"tld": "sn",
			"iso3": "SEN",
			"iso2": "SN",
			"fips": "SG",
			"isoN": 686
		},
		"callCode": [221
		]
	},{
		"id": 226,
		"name": "Serbia y Montenegro",
		"englishName": "Serbia",
		"flag": "https://firebasestorage.googleapis.com/v0/b/banderasapipaises.appspot.com/o/Banderas%2Frs.svg?alt=media&token=d400fa16-3840-4351-becc-19cc4f7cc28a",
		"capital": "Belgrado",
		"latitude": 44.016521,
		"longitude": 21.005859,
		"countryCodes": {
			"tld": "rs",
			"iso3": "SRB",
			"iso2": "RS",
			"fips": "RB",
			"isoN": 688
		},
		"callCode": [381
		]
	},{
		"id": 109,
		"name": "Seychelles",
		"englishName": "Seychelles",
		"flag": "https://firebasestorage.googleapis.com/v0/b/banderasapipaises.appspot.com/o/Banderas%2Fsc.svg?alt=media&token=b4d12a98-1c65-41cf-8f8b-c69967f829e6",
		"capital": "Victoria",
		"latitude": -4.679574,
		"longitude": 55.491977,
		"countryCodes": {
			"tld": "sc",
			"iso3": "SYC",
			"iso2": "SC",
			"fips": "SE",
			"isoN": 690
		},
		"callCode": [248
		]
	},{
		"id": 227,
		"name": "Sierra Leona",
		"englishName": "Sierra Leone",
		"flag": "https://firebasestorage.googleapis.com/v0/b/banderasapipaises.appspot.com/o/Banderas%2Fsl.svg?alt=media&token=613c3e43-60ae-459c-8b98-f626dd99b8ec",
		"capital": "Freetown",
		"latitude": 8.460555,
		"longitude": -11.779889,
		"countryCodes": {
			"tld": "sl",
			"iso3": "SLE",
			"iso2": "SL",
			"fips": "SL",
			"isoN": 694
		},
		"callCode": [232
		]
	},{
		"id": 77,
		"name": "Singapur",
		"englishName": "Singapore",
		"flag": "https://firebasestorage.googleapis.com/v0/b/banderasapipaises.appspot.com/o/Banderas%2Fsg.svg?alt=media&token=70533f9e-958c-4974-9a8a-0f025cc5e626",
		"capital": "Singapur",
		"latitude": 1.352083,
		"longitude": 103.819836,
		"countryCodes": {
			"tld": "sg",
			"iso3": "SGP",
			"iso2": "SG",
			"fips": "SN",
			"isoN": 702
		},
		"callCode": [65
		]
	},{
		"id": 106,
		"name": "Siria",
		"englishName": "Syria",
		"flag": "https://firebasestorage.googleapis.com/v0/b/banderasapipaises.appspot.com/o/Banderas%2Fsy.svg?alt=media&token=1e886f85-b0bc-46f7-8efe-bbe219d8d9f9",
		"capital": "Damasco",
		"latitude": 44.016521,
		"longitude": 21.005859,
		"countryCodes": {
			"tld": "sy",
			"iso3": "SYR",
			"iso2": "SY",
			"fips": "SY",
			"isoN": 760
		},
		"callCode": [963
		]
	},{
		"id": 229,
		"name": "Somalia",
		"englishName": "Somalia",
		"flag": "https://firebasestorage.googleapis.com/v0/b/banderasapipaises.appspot.com/o/Banderas%2Fso.svg?alt=media&token=7e691bec-b2ac-4138-ba76-fe5286e0bfdc",
		"capital": "Mogadiscio",
		"latitude": 5.152149,
		"longitude": 46.199616,
		"countryCodes": {
			"tld": "so",
			"iso3": "SOM",
			"iso2": "SO",
			"fips": "SO",
			"isoN": 706
		},
		"callCode": [252
		]
	},{
		"id": 120,
		"name": "Sri Lanka",
		"englishName": "Sri Lanka",
		"flag": "https://firebasestorage.googleapis.com/v0/b/banderasapipaises.appspot.com/o/Banderas%2Flk.svg?alt=media&token=b179a4cd-e4b6-4518-a57c-891fb5adcd0e",
		"capital": "Sri Jayawardenapura Kotte",
		"latitude": 7.873054,
		"longitude": 80.771797,
		"countryCodes": {
			"tld": "lk",
			"iso3": "LKA",
			"iso2": "LK",
			"fips": "CE",
			"isoN": 144
		},
		"callCode": [94
		]
	},{
		"id": 141,
		"name": "Sudáfrica",
		"englishName": "South Africa",
		"flag": "https://firebasestorage.googleapis.com/v0/b/banderasapipaises.appspot.com/o/Banderas%2Fza.svg?alt=media&token=815b07f2-0483-4d45-8f10-1f0e5cc02c23",
		"capital": "Ciudad del Cabo",
		"latitude": -30.559482,
		"longitude": 22.937506,
		"countryCodes": {
			"tld": "za",
			"iso3": "ZAF",
			"iso2": "ZA",
			"fips": "SF",
			"isoN": 710
		},
		"callCode": [27
		]
	},{
		"id": 232,
		"name": "Sudán",
		"englishName": "Sudan",
		"flag": "https://firebasestorage.googleapis.com/v0/b/banderasapipaises.appspot.com/o/Banderas%2Fsd.svg?alt=media&token=7331b891-3099-4ca4-8a84-fab0eac79ccb",
		"capital": "Jartum",
		"latitude": 12.862807,
		"longitude": 30.217636,
		"countryCodes": {
			"tld": "sd",
			"iso3": "SDN",
			"iso2": "SD",
			"fips": "SU",
			"isoN": 736
		},
		"callCode": [249
		]
	},{
		"id": 67,
		"name": "Suecia",
		"englishName": "Sweden",
		"flag": "https://firebasestorage.googleapis.com/v0/b/banderasapipaises.appspot.com/o/Banderas%2Fse.svg?alt=media&token=9531904c-abc7-4e50-b344-97ae50845592",
		"capital": "Estocolmo",
		"latitude": 60.128161,
		"longitude": 18.643501,
		"countryCodes": {
			"tld": "se",
			"iso3": "SWE",
			"iso2": "SE",
			"fips": "SW",
			"isoN": 752
		},
		"callCode": [46
		]
	},{
		"id": 66,
		"name": "Suiza",
		"englishName": "Switzerland",
		"flag": "https://firebasestorage.googleapis.com/v0/b/banderasapipaises.appspot.com/o/Banderas%2Fch.svg?alt=media&token=99e7de5d-6f54-42ba-b909-2d6949db70e0",
		"capital": "Berna",
		"latitude": 46.818188,
		"longitude": 8.227512,
		"countryCodes": {
			"tld": "ch",
			"iso3": "CHE",
			"iso2": "CH",
			"fips": "SZ",
			"isoN": 756
		},
		"callCode": [41
		]
	},{
		"id": 54,
		"name": "Surinam",
		"englishName": "Suriname",
		"flag": "https://firebasestorage.googleapis.com/v0/b/banderasapipaises.appspot.com/o/Banderas%2Fsr.svg?alt=media&token=2a5e8271-6041-4e95-b9a3-0533c5e15735",
		"capital": "Paramaribo",
		"latitude": 3.919305,
		"longitude": -56.027783,
		"countryCodes": {
			"tld": "sr",
			"iso3": "SUR",
			"iso2": "SR",
			"fips": "NS",
			"isoN": 740
		},
		"callCode": [597
		]
	},{
		"id": 234,
		"name": "Suazilandia",
		"englishName": "Swaziland",
		"flag": "https://firebasestorage.googleapis.com/v0/b/banderasapipaises.appspot.com/o/Banderas%2Fsz.svg?alt=media&token=24166c9f-9e4c-43de-9465-778342fec42e",
		"capital": "Lobamba",
		"latitude": -26.522503,
		"longitude": 31.465866,
		"countryCodes": {
			"tld": "sz",
			"iso3": "SWZ",
			"iso2": "SZ",
			"fips": "WZ",
			"isoN": 748
		},
		"callCode": [268
		]
	},{
		"id": 56,
		"name": "Tayikistán",
		"englishName": "Tajikistan",
		"flag": "https://firebasestorage.googleapis.com/v0/b/banderasapipaises.appspot.com/o/Banderas%2Ftj.svg?alt=media&token=a182ee7d-400f-4807-a175-5383f4515fe6",
		"capital": "Dusambé",
		"latitude": 38.861034,
		"longitude": 71.276093,
		"countryCodes": {
			"tld": "tj",
			"iso3": "TJK",
			"iso2": "TJ",
			"fips": "TI",
			"isoN": 762
		},
		"callCode": [992
		]
	},{
		"id": 92,
		"name": "Tailandia",
		"englishName": "Thailand",
		"flag": "https://firebasestorage.googleapis.com/v0/b/banderasapipaises.appspot.com/o/Banderas%2Fth.svg?alt=media&token=e6506d2b-055b-40c2-b9a4-4d3c439bb916",
		"capital": "Bangkok",
		"latitude": 15.870032,
		"longitude": 100.992541,
		"countryCodes": {
			"tld": "th",
			"iso3": "THA",
			"iso2": "TH",
			"fips": "TH",
			"isoN": 764
		},
		"callCode": [66
		]
	},{
		"id": 78,
		"name": "Taiwán",
		"englishName": "Taiwan",
		"flag": "https://firebasestorage.googleapis.com/v0/b/banderasapipaises.appspot.com/o/Banderas%2Ftw.svg?alt=media&token=c3f993a8-1512-485b-b457-6b80ba602b38",
		"capital": "Taipéi",
		"latitude": 23.69781,
		"longitude": 120.960515,
		"countryCodes": {
			"tld": "tw",
			"iso3": "TWN",
			"iso2": "TW",
			"fips": "TW",
			"isoN": 158
		},
		"callCode": [886
		]
	},{
		"id": 101,
		"name": "Tanzania",
		"englishName": "Tanzania",
		"flag": "https://firebasestorage.googleapis.com/v0/b/banderasapipaises.appspot.com/o/Banderas%2Ftz.svg?alt=media&token=2bcdbfef-f47b-462d-a30f-ca8d045a67a9",
		"capital": "Dodoma",
		"latitude": -6.369028,
		"longitude": 34.888822,
		"countryCodes": {
			"tld": "tz",
			"iso3": "TZA",
			"iso2": "TZ",
			"fips": "TZ",
			"isoN": 834
		},
		"callCode": [255
		]
	},{
		"id": 171,
		"name": "Timor Oriental",
		"englishName": "Timor-Leste",
		"flag": "https://firebasestorage.googleapis.com/v0/b/banderasapipaises.appspot.com/o/Banderas%2Ftl.svg?alt=media&token=ec521466-4ffb-4906-82fb-6d40b6102992",
		"capital": "Dili",
		"latitude": -8.874217,
		"longitude": 125.727539,
		"countryCodes": {
			"tld": "tl",
			"iso3": "TLS",
			"iso2": "TL",
			"fips": "TT",
			"isoN": 626
		},
		"callCode": [670
		]
	},{
		"id": 136,
		"name": "Togo",
		"englishName": "Togo",
		"flag": "https://firebasestorage.googleapis.com/v0/b/banderasapipaises.appspot.com/o/Banderas%2Ftg.svg?alt=media&token=9b4ad94d-a8ff-4e22-aab2-d5b2b155d27f",
		"capital": "Lomé",
		"latitude": 8.619543,
		"longitude": 0.824782,
		"countryCodes": {
			"tld": "tg",
			"iso3": "TGO",
			"iso2": "TG",
			"fips": "TO",
			"isoN": 768
		},
		"callCode": [228
		]
	},{
		"id": 235,
		"name": "Islas Tokelau",
		"englishName": "Tokelau",
		"flag": "https://firebasestorage.googleapis.com/v0/b/banderasapipaises.appspot.com/o/Banderas%2Ftk.svg?alt=media&token=b423b222-30f5-4b22-b333-a078f4cbacbe",
		"capital": "Fakaofo",
		"latitude": -8.967363,
		"longitude": -171.855881,
		"countryCodes": {
			"tld": "tk",
			"iso3": "TKL",
			"iso2": "TK",
			"fips": "TL",
			"isoN": 772
		},
		"callCode": [690
		]
	},{
		"id": 236,
		"name": "Tonga",
		"englishName": "Tonga",
		"flag": "https://firebasestorage.googleapis.com/v0/b/banderasapipaises.appspot.com/o/Banderas%2Fto.svg?alt=media&token=339dc90a-136b-4a1c-a831-829b0960d144",
		"capital": "Nukualofa",
		"latitude": -21.178986,
		"longitude": -175.198242,
		"countryCodes": {
			"tld": "to",
			"iso3": "TON",
			"iso2": "TO",
			"fips": "TN",
			"isoN": 776
		},
		"callCode": [676
		]
	},{
		"id": 237,
		"name": "Trinidad y Tobago",
		"englishName": "Trinidad and Tobago",
		"flag": "https://firebasestorage.googleapis.com/v0/b/banderasapipaises.appspot.com/o/Banderas%2Ftt.svg?alt=media&token=e719faf7-5d7a-4459-b3ac-3dfe69bdae07",
		"capital": "Puerto España",
		"latitude": 10.691803,
		"longitude": -61.222503,
		"countryCodes": {
			"tld": "tt",
			"iso3": "TTO",
			"iso2": "TT",
			"fips": "TD",
			"isoN": 780
		},
		"callCode": [1868
		]
	},{
		"id": 122,
		"name": "Túnez",
		"englishName": "Tunisia",
		"flag": "https://firebasestorage.googleapis.com/v0/b/banderasapipaises.appspot.com/o/Banderas%2Ftn.svg?alt=media&token=426e2fac-16c7-4186-a2e0-c769ac1b03d8",
		"capital": "Túnez",
		"latitude": 33.886917,
		"longitude": 9.537499,
		"countryCodes": {
			"tld": "tn",
			"iso3": "TUN",
			"iso2": "TN",
			"fips": "TS",
			"isoN": 788
		},
		"callCode": [216
		]
	},{
		"id": 57,
		"name": "Turkmenistán",
		"englishName": "Turkmenistan",
		"flag": "https://firebasestorage.googleapis.com/v0/b/banderasapipaises.appspot.com/o/Banderas%2Ftm.svg?alt=media&token=4a33436f-eb44-4624-bbaa-4090ab79619a",
		"capital": "Asjabad",
		"latitude": 38.969719,
		"longitude": 59.556278,
		"countryCodes": {
			"tld": "tm",
			"iso3": "TKM",
			"iso2": "TM",
			"fips": "TX",
			"isoN": 795
		},
		"callCode": [993
		]
	},{
		"id": 59,
		"name": "Turquía",
		"englishName": "Turkey",
		"flag": "https://firebasestorage.googleapis.com/v0/b/banderasapipaises.appspot.com/o/Banderas%2Ftr.svg?alt=media&token=b312bb7f-f9c4-432c-8fd5-5c4dc1de7fe1",
		"capital": "Ankara",
		"latitude": 38.963745,
		"longitude": 35.243322,
		"countryCodes": {
			"tld": "tr",
			"iso3": "TUR",
			"iso2": "TR",
			"fips": "TU",
			"isoN": 792
		},
		"callCode": [90
		]
	},{
		"id": 239,
		"name": "Tuvalu",
		"englishName": "Tuvalu",
		"flag": "https://firebasestorage.googleapis.com/v0/b/banderasapipaises.appspot.com/o/Banderas%2Ftv.svg?alt=media&token=a240b93c-6144-4a89-8f7d-a6c15eaf7e63",
		"capital": "Funafuti",
		"latitude": -7.109535,
		"longitude": "Funafuti",
		"countryCodes": {
			"tld": "tv",
			"iso3": "TUV",
			"iso2": "TV",
			"fips": "TV",
			"isoN": 798
		},
		"callCode": [688
		]
	},{
		"id": 62,
		"name": "Ucrania",
		"englishName": "Ukraine",
		"flag": "https://firebasestorage.googleapis.com/v0/b/banderasapipaises.appspot.com/o/Banderas%2Fua.svg?alt=media&token=b3b7e4fa-8100-48af-bfc8-2d5b3ea18a5f",
		"capital": "Kiev",
		"latitude": 48.379433,
		"longitude": 31.16558,
		"countryCodes": {
			"tld": "ua",
			"iso3": "UKR",
			"iso2": "UA",
			"fips": "UP",
			"isoN": 804
		},
		"callCode": [380
		]
	},{
		"id": 60,
		"name": "Uganda",
		"englishName": "Uganda",
		"flag": "https://firebasestorage.googleapis.com/v0/b/banderasapipaises.appspot.com/o/Banderas%2Fug.svg?alt=media&token=d0a64962-f941-4241-9e97-86c6e559f129",
		"capital": "Kampala",
		"latitude": 1.373333,
		"longitude": 32.290275,
		"countryCodes": {
			"tld": "ug",
			"iso3": "UGA",
			"iso2": "UG",
			"fips": "UG",
			"isoN": 800
		},
		"callCode": [256
		]
	},{
		"id": 111,
		"name": "Uruguay",
		"englishName": "Uruguay",
		"flag": "https://firebasestorage.googleapis.com/v0/b/banderasapipaises.appspot.com/o/Banderas%2Fuy.svg?alt=media&token=a1b2335a-efb6-4e48-ad55-73038a6c41b4",
		"capital": "Montevideo",
		"latitude": -32.522779,
		"longitude": -55.765835,
		"countryCodes": {
			"tld": "uy",
			"iso3": "URY",
			"iso2": "UY",
			"fips": "UY",
			"isoN": 858
		},
		"callCode": [598
		]
	},{
		"id": 61,
		"name": "Uzbekistán",
		"englishName": "Uzbekistan",
		"flag": "https://firebasestorage.googleapis.com/v0/b/banderasapipaises.appspot.com/o/Banderas%2Fuz.svg?alt=media&token=e8ffcf28-2eb5-4d48-9673-4068aa73a747",
		"capital": "Taskent",
		"latitude": 41.377491,
		"longitude": 64.585262,
		"countryCodes": {
			"tld": "uz",
			"iso3": "UZB",
			"iso2": "UZ",
			"fips": "UZ",
			"isoN": 860
		},
		"callCode": [998
		]
	},{
		"id": 240,
		"name": "Vanuatu",
		"englishName": "Vanuatu",
		"flag": "https://firebasestorage.googleapis.com/v0/b/banderasapipaises.appspot.com/o/Banderas%2Fvu.svg?alt=media&token=7dabe78e-2c7d-402c-ae53-ae3ee05e921c",
		"capital": "Port Vila",
		"latitude": -15.376706,
		"longitude": 166.959158,
		"countryCodes": {
			"tld": "vu",
			"iso3": "VUT",
			"iso2": "VU",
			"fips": "NH",
			"isoN": 548
		},
		"callCode": [678
		]
	},{
		"id": 95,
		"name": "Venezuela",
		"englishName": "Venezuela",
		"flag": "https://firebasestorage.googleapis.com/v0/b/banderasapipaises.appspot.com/o/Banderas%2Fve.svg?alt=media&token=6348cdf0-e9f5-4140-8431-3d4e53c30edb",
		"capital": "Caracas",
		"latitude": 6.42375,
		"longitude": -66.58973,
		"countryCodes": {
			"tld": "ve",
			"iso3": "VEN",
			"iso2": "VE",
			"fips": "VE",
			"isoN": 862
		},
		"callCode": [58
		]
	},{
		"id": 15,
		"name": "Vietnam",
		"englishName": "Vietnam",
		"flag": "https://firebasestorage.googleapis.com/v0/b/banderasapipaises.appspot.com/o/Banderas%2Fvn.svg?alt=media&token=33c9fa9c-4a5a-4481-a923-0f865170c4d4",
		"capital": "Hanói",
		"latitude": 14.058324,
		"longitude": 108.277199,
		"countryCodes": {
			"tld": "vn",
			"iso3": "VNM",
			"iso2": "VN",
			"fips": "VM",
			"isoN": 704
		},
		"callCode": [84
		]
	},{
		"id": 241,
		"name": "Wallis y Futuna",
		"englishName": "Wallis and Futuna",
		"flag": "https://firebasestorage.googleapis.com/v0/b/banderasapipaises.appspot.com/o/Banderas%2Fwf.svg?alt=media&token=22673f5c-68a9-454e-9e6d-a1c995b3f327",
		"capital": "Mata-Utu",
		"latitude": -13.768752,
		"longitude": -177.156097,
		"countryCodes": {
			"tld": "wf",
			"iso3": "WLF",
			"iso2": "WF",
			"fips": "WF",
			"isoN": 876
		},
		"callCode": [681
		]
	},{
		"id": 243,
		"name": "Yemen",
		"englishName": "Yemen",
		"flag": "https://firebasestorage.googleapis.com/v0/b/banderasapipaises.appspot.com/o/Banderas%2Fye.svg?alt=media&token=993eb9e4-42a4-4a20-8133-3d9944d2868c",
		"capital": "Saná",
		"latitude": 15.552727,
		"longitude": 48.516388,
		"countryCodes": {
			"tld": "ye",
			"iso3": "YEM",
			"iso2": "YE",
			"fips": "YM",
			"isoN": 887
		},
		"callCode": [967
		]
	},{
		"id": 116,
		"name": "Zambia",
		"englishName": "Zambia",
		"flag": "https://firebasestorage.googleapis.com/v0/b/banderasapipaises.appspot.com/o/Banderas%2Fzm.svg?alt=media&token=eba9addd-8bf5-4599-b0a2-d6b1384117e9",
		"capital": "Lusaka",
		"latitude": -13.133897,
		"longitude": 27.849332,
		"countryCodes": {
			"tld": "zm",
			"iso3": "ZMB",
			"iso2": "ZM",
			"fips": "ZA",
			"isoN": 894
		},
		"callCode": [260
		]
	},{
		"id": 96,
		"name": "Zimbabue",
		"englishName": "Zimbabwe",
		"flag": "https://firebasestorage.googleapis.com/v0/b/banderasapipaises.appspot.com/o/Banderas%2Fzw.svg?alt=media&token=4ab1e31f-c0f7-4927-85f9-fa460257d975",
		"capital": "Harare",
		"latitude": -19.015438,
		"longitude": 29.154857,
		"countryCodes": {
			"tld": "zw",
			"iso3": "ZWE",
			"iso2": "ZW",
			"fips": "ZI",
			"isoN": 716
		},
		"callCode": [263
		]
	}
]